unit_number,location_number,state,county,ags,zip_code,locality,unit_register_date,unit_active_date,unit_status,unit_system_status,unit_gross_capacity,unit_net_capacity,number_panels,unit_direction_main,unit_slope_main,unit_direction_sec,unit_slope_sec,unit_feedtype,unit_usage,battery_gross_capacity,battery_net_capacity,lon,lat
SEE955490950383,SEL907813340951,Bayern,Erlangen,09562000,91056,Erlangen,2020-12-02,2005-06-09,In Betrieb,Aktiviert,72.67,59.8,338,Süd,5 - 20 Grad,null,null,Volleinspeisung,"Gewerbe, Handel und Dienstleistungen",null,null,10.973513,49.579636
SEE942017983023,SEL900495877104,Schleswig-Holstein,Segeberg,01060090,23827,Travenhorst,2020-12-02,2011-12-28,In Betrieb,Aktiviert,119.5,107.85,478,Süd-West,5 - 20 Grad,Süd-Ost,21 - 40 Grad,Volleinspeisung,Landwirtschaft,null,null,10.463314,54.009654
SEE962630751120,SEL931912908132,Niedersachsen,Cloppenburg,03453008,49681,Garrel,2020-03-09,2010-11-15,In Betrieb,Aktiviert,57.72,51,312,Süd-Ost,5 - 20 Grad,null,null,Volleinspeisung,Landwirtschaft,null,null,8.026705,52.952202
SEE909637597054,SEL961528943319,Sachsen,Görlitz,14626300,02829,Markersdorf,2020-02-18,2011-07-04,In Betrieb,Aktiviert,63.425,59.8,295,Süd,21 - 40 Grad,null,null,Volleinspeisung,Industrie,null,null,8.254932,50.038957
SEE927101100791,SEL945694539477,Bayern,Pfaffenhofen a.d. Ilm,09186144,85309,Pörnbach,2019-03-21,2019-02-28,In Betrieb,Aktiviert,78.66,65,276,Süd-Ost,5 - 20 Grad,null,null,Volleinspeisung,Sonstige,null,null,11.451797,48.618214
SEE992630480126,SEL943411818201,Nordrhein-Westfalen,Borken,05554048,46414,Rhede,2023-12-11,2023-11-29,In Betrieb,Aktiviert,59.13,59.13,146,Nord,21 - 40 Grad,Süd,41 - 60 Grad,Teileinspeisung (einschließlich Eigenverbrauch),Haushalt,33,10,6.683597,51.842466
SEE947991099920,SEL925190757124,Mecklenburg-Vorpommern,Vorpommern-Greifswald,13075130,17335,Strasburg,2024-10-12,2024-10-09,In Betrieb,Aktiviert,61.5,50,410,Nord,5 - 20 Grad,null,null,Volleinspeisung,"Gewerbe, Handel und Dienstleistungen",null,null,13.747576,53.516790
SEE917975898344,SEL916489852101,Bayern,Ansbach,09571174,91578,Leutershausen,2021-01-21,2008-09-26,In Betrieb,Aktiviert,73.23,70,1010,West,21 - 40 Grad,Ost,21 - 40 Grad,Volleinspeisung,Sonstige,null,null,10.327750,49.282850
SEE949867085426,SEL956679508548,Nordrhein-Westfalen,Steinfurt,05566028,49479,Ibbenbüren,2020-11-07,2019-01-17,In Betrieb,Aktiviert,31.86,31.86,118,Süd,5 - 20 Grad,null,null,Teileinspeisung (einschließlich Eigenverbrauch),"Gewerbe, Handel und Dienstleistungen",12,12,7.776687,52.263853
SEE908867568841,SEL999871497814,Sachsen-Anhalt,Altmarkkreis Salzwedel,15081280,38486,Klötze,2019-03-29,2019-03-27,In Betrieb,Aktiviert,171.12,171.12,552,West,5 - 20 Grad,Ost,5 - 20 Grad,Volleinspeisung,"Gewerbe, Handel und Dienstleistungen",null,null,11.092000,52.577000
SEE955847617624,SEL973995379430,Baden-Württemberg,Tuttlingen,08327018,78187,Geisingen,2021-03-30,2021-03-30,In Betrieb,Aktiviert,749.595,660,1947,Süd,5 - 20 Grad,null,null,Volleinspeisung,null,null,null,8.629241,47.934184
SEE916883604207,SEL977580187912,Nordrhein-Westfalen,Minden-Lübbecke,05770044,32351,Stemwede,2024-08-14,2024-07-18,In Betrieb,Aktiviert,33.18,33.18,84,Ost-West,5 - 20 Grad,null,null,Teileinspeisung (einschließlich Eigenverbrauch),"Gewerbe, Handel und Dienstleistungen",null,null,8.465765,52.436119
SEE950932040998,SEL906805046116,Baden-Württemberg,Karlsruhe,08215099,76676,Graben-Neudorf,2020-11-11,2020-05-30,In Betrieb,Aktiviert,471.555,418,1497,Süd,5 - 20 Grad,Ost-West,5 - 20 Grad,Teileinspeisung (einschließlich Eigenverbrauch),Landwirtschaft,null,null,8.509320,49.178397
SEE935868903883,SEL978455867946,Nordrhein-Westfalen,Minden-Lübbecke,05770020,32312,Lübbecke,2024-08-01,2024-07-02,In Betrieb,Aktiviert,571.12,544,1298,Ost-West,5 - 20 Grad,null,null,Teileinspeisung (einschließlich Eigenverbrauch),"Gewerbe, Handel und Dienstleistungen",null,null,8.614417,52.327369
SEE962649340025,SEL973772102244,Nordrhein-Westfalen,Kleve,05154024,46509,Xanten,2021-01-22,2010-06-14,In Betrieb,Aktiviert,76.5,68.85,1034,Nord-Ost,5 - 20 Grad,Süd-West,5 - 20 Grad,Volleinspeisung,Landwirtschaft,null,null,6.407126,51.680176
SEE994878910199,SEL988595421571,Bayern,Aichach-Friedberg,09771113,86551,Aichach,2025-09-05,2025-08-15,In Betrieb,Aktiviert,41.86,40,92,Süd,21 - 40 Grad,null,null,Volleinspeisung,Haushalt,null,null,10.915112,48.364593
SEE917524894797,SEL958506182365,Mecklenburg-Vorpommern,Vorpommern-Greifswald,13075069,17440,Kröslin,2021-08-27,2021-08-27,In Betrieb,Aktiviert,743.24,714.6,2186,Ost-West,5 - 20 Grad,null,null,Volleinspeisung,"Gewerbe, Handel und Dienstleistungen",null,null,13.753446,54.121399
SEE929155558955,SEL989302143359,Hessen,Wiesbaden,06414000,65207,Wiesbaden,2023-10-12,2023-05-05,In Betrieb,Aktiviert,180,150,480,Ost-West,5 - 20 Grad,null,null,Teileinspeisung (einschließlich Eigenverbrauch),null,null,null,8.332871,50.116687
SEE903042575645,SEL936372748106,Hessen,Werra-Meißner-Kreis,06636016,37213,Witzenhausen,2021-01-15,2011-12-29,In Betrieb,Aktiviert,461.61,375,2007,Süd,21 - 40 Grad,null,null,Volleinspeisung,Landwirtschaft,null,null,9.822466,51.365336
SEE929246581374,SEL956271427148,Niedersachsen,Celle,03351012,29313,Hambühren,2020-08-13,2020-03-18,In Betrieb,Aktiviert,99.84,96,312,Ost-West,21 - 40 Grad,null,null,Teileinspeisung (einschließlich Eigenverbrauch),Landwirtschaft,null,null,9.983025,52.640408
SEE914914799991,SEL946970149526,Bayern,Neustadt a.d. Aisch-Bad Windsheim,09575168,97215,Uffenheim,2020-06-22,2009-12-16,In Betrieb,Aktiviert,46.62,46.62,259,Süd,41 - 60 Grad,null,null,Volleinspeisung,Landwirtschaft,null,null,10.000000,49.800000
SEE972525602444,SEL949144940141,Bayern,Hof,09475123,95183,Feilitzsch,2024-02-02,2023-11-30,In Betrieb,Aktiviert,363.26,350,886,Ost,5 - 20 Grad,West,5 - 20 Grad,Teileinspeisung (einschließlich Eigenverbrauch),"Gewerbe, Handel und Dienstleistungen",null,null,11.903165,50.346305
SEE911899213207,SEL955885667582,Niedersachsen,Emsland,03454018,49733,Haren,2020-02-14,2011-07-12,In Betrieb,Aktiviert,59.85,56.8,266,West,41 - 60 Grad,null,null,Teileinspeisung (einschließlich Eigenverbrauch),"Gewerbe, Handel und Dienstleistungen",null,null,7.252971,52.796523
SEE959578273654,SEL982889482224,Brandenburg,Potsdam-Mittelmark,12069616,14513,Teltow,2020-02-10,2016-05-20,In Betrieb,Aktiviert,88.4,85,340,Süd,5 - 20 Grad,null,null,Teileinspeisung (einschließlich Eigenverbrauch),"Gewerbe, Handel und Dienstleistungen",null,null,13.291557,52.391381
SEE996806778895,SEL942171563444,Baden-Württemberg,Karlsruhe,08215108,76287,Rheinstetten,2024-07-31,2024-07-29,In Betrieb,Aktiviert,291.72,246.6,858,Ost-West,5 - 20 Grad,null,null,Teileinspeisung (einschließlich Eigenverbrauch),"Gewerbe, Handel und Dienstleistungen",null,null,8.280569,48.961758
SEE932103009164,SEL901605043389,Schleswig-Holstein,Plön,01057069,24601,Ruhwinkel,2020-12-20,2009-12-31,In Betrieb,Aktiviert,63.945,63.945,null,Süd-West,21 - 40 Grad,null,null,Volleinspeisung,Landwirtschaft,null,null,10.204667,54.084048
SEE990336550310,SEL953758488579,Nordrhein-Westfalen,Paderborn,05774024,33161,Hövelhof,2019-07-17,2009-12-28,In Betrieb,Aktiviert,51.66,48.6,287,null,null,null,null,Volleinspeisung,"Gewerbe, Handel und Dienstleistungen",null,null,8.661146,51.823430
SEE930122982871,SEL917670798550,Rheinland-Pfalz,Eifelkreis Bitburg-Prüm,07232123,54662,Speicher,2024-04-29,2024-04-29,In Betrieb,Aktiviert,54.81,50,126,Süd-Ost,5 - 20 Grad,Nord-West,5 - 20 Grad,Teileinspeisung (einschließlich Eigenverbrauch),Haushalt,null,null,6.641370,49.937089
SEE998280216641,SEL976885041936,Saarland,Regionalverband Saarbrücken,10041516,66287,Quierschied,2020-12-16,2011-11-15,In Betrieb,Aktiviert,38.3,37.5,160,Süd,21 - 40 Grad,null,null,Volleinspeisung,Öffentliches Gebäude,null,null,7.050742,49.329031
SEE965118207287,SEL999070620334,Bayern,Tirschenreuth,09377148,95704,Pullenreuth,2021-08-20,2021-06-30,In Betrieb,Aktiviert,81.4,80,226,Süd,21 - 40 Grad,Ost-West,21 - 40 Grad,Teileinspeisung (einschließlich Eigenverbrauch),Landwirtschaft,null,null,12.008380,49.954591
SEE935668930812,SEL983872114702,Nordrhein-Westfalen,Borken,05554012,46325,Borken,2020-01-09,2011-12-28,In Betrieb,Aktiviert,353.38,353.38,1285,Ost-West,21 - 40 Grad,null,null,Volleinspeisung,Landwirtschaft,null,null,6.765551,51.885844
SEE968935381635,SEL969615409601,Bayern,Würzburg,09679130,97230,Estenfeld,2020-11-09,2013-06-29,In Betrieb,Aktiviert,85.75,71.6,350,Süd,5 - 20 Grad,null,null,Teileinspeisung (einschließlich Eigenverbrauch),Öffentliches Gebäude,null,null,10.005523,49.825984
SEE936563485971,SEL910335534753,Bayern,Passau,09275111,94529,Aicha,2020-09-02,2012-06-29,In Betrieb,Aktiviert,499.92,499.92,2083,Süd,5 - 20 Grad,null,null,Teileinspeisung (einschließlich Eigenverbrauch),Industrie,null,null,13.298000,48.678000
SEE927861208683,SEL989723017819,Bayern,Würzburg,09679144,97264,Helmstadt,2021-10-14,2011-12-14,In Betrieb,Aktiviert,31.96,31.96,136,Süd,21 - 40 Grad,null,null,Volleinspeisung,"Gewerbe, Handel und Dienstleistungen",null,null,9.711699,49.759489
SEE968985267408,SEL994840963031,Brandenburg,Elbe-Elster,12062124,04910,Elsterwerda,2019-02-14,2018-06-29,In Betrieb,Aktiviert,505.02,480,1772,Ost,5 - 20 Grad,West,5 - 20 Grad,Volleinspeisung,null,null,null,13.500000,51.468000
SEE960485808785,SEL952042748214,Niedersachsen,Diepholz,03251007,27211,Bassum,2020-06-11,2011-06-29,In Betrieb,Aktiviert,393.77,357,1596,Süd-Ost,5 - 20 Grad,null,null,Volleinspeisung,null,null,null,8.699543,52.835843
SEE961356012201,SEL987855220688,Sachsen-Anhalt,Burgenlandkreis,15084315,06686,Lützen,2020-12-04,2012-03-08,In Betrieb,Aktiviert,478.55,478.55,2008,Süd,5 - 20 Grad,Ost-West,5 - 20 Grad,Teileinspeisung (einschließlich Eigenverbrauch),Landwirtschaft,null,null,12.121172,51.194634
SEE950043229404,SEL966849426824,Brandenburg,Uckermark,12073452,17291,Prenzlau,2024-10-24,2024-10-18,In Betrieb,Aktiviert,36.45,35,90,Süd-West,5 - 20 Grad,null,null,Teileinspeisung (einschließlich Eigenverbrauch),"Gewerbe, Handel und Dienstleistungen",null,null,13.834250,53.308378
SEE924215957532,SEL972137641633,Thüringen,Altenburger Land,16077036,04603,Nobitz,2019-02-14,2012-06-28,In Betrieb,Aktiviert,4406.4,3960,17626,Süd,5 - 20 Grad,null,null,Volleinspeisung,null,null,null,12.497335,50.979183
SEE988882297544,SEL939734913266,Hessen,Main-Kinzig-Kreis,06435017,63505,Langenselbold,2021-05-07,2012-08-22,In Betrieb,Aktiviert,87.25,87.25,349,Süd-Ost,5 - 20 Grad,null,null,Teileinspeisung (einschließlich Eigenverbrauch),"Gewerbe, Handel und Dienstleistungen",null,null,9.057435,50.164350
SEE992972385950,SEL990163005472,Baden-Württemberg,Zollernalbkreis,08417002,72336,Balingen,2024-10-14,2024-09-24,In Betrieb,Aktiviert,57.64,45,131,Ost-West,5 - 20 Grad,null,null,Teileinspeisung (einschließlich Eigenverbrauch),Haushalt,42.2,40,8.853379,48.234544
SEE961853916279,SEL925030900697,Sachsen,Chemnitz,14511000,09126,Chemnitz,2024-02-27,2024-01-31,In Betrieb,Aktiviert,846.6,700,1992,Ost-West,5 - 20 Grad,null,null,Teileinspeisung (einschließlich Eigenverbrauch),null,null,null,12.922265,50.814139
SEE983172351838,SEL999704284529,Bayern,Hof,09475142,95176,Konradsreuth,2020-12-29,2012-03-31,In Betrieb,Aktiviert,96.525,94.01,495,Süd-West,21 - 40 Grad,null,null,Volleinspeisung,Landwirtschaft,null,null,11.827066,50.284313
SEE939863892142,SEL985813212164,Bayern,Erding,09177118,85464,Finsing,2023-06-14,2023-05-27,In Betrieb,Aktiviert,95.94,87,234,Süd,5 - 20 Grad,null,null,Teileinspeisung (einschließlich Eigenverbrauch),"Gewerbe, Handel und Dienstleistungen",null,null,11.769894,48.241256
SEE988536643338,SEL992430475797,Niedersachsen,Osterholz,03356005,28865,Lilienthal,2025-01-21,2025-01-02,In Betrieb,Aktiviert,60.28,50,137,Süd-West,5 - 20 Grad,null,null,Teileinspeisung (einschließlich Eigenverbrauch),Öffentliches Gebäude,null,null,8.935167,53.163425
SEE997889865120,SEL939858478559,Bayern,Würzburg,09679170,97199,Ochsenfurt,2021-04-21,2021-01-29,In Betrieb,Aktiviert,99.76,99.76,281,Süd,5 - 20 Grad,null,null,Teileinspeisung (einschließlich Eigenverbrauch),"Gewerbe, Handel und Dienstleistungen",null,null,10.053182,49.666881
SEE984719669447,SEL906106733012,Rheinland-Pfalz,Neuwied,07138052,57639,Oberdreis,2020-12-10,2010-11-12,In Betrieb,Aktiviert,698.36,698.36,2894,Süd,21 - 40 Grad,null,null,Volleinspeisung,null,null,null,7.685438,50.622663
SEE986753812650,SEL990372196329,Baden-Württemberg,Lörrach,08336050,79539,Lörrach,2024-06-12,2024-05-15,In Betrieb,Aktiviert,78.26,60,182,Ost-West,5 - 20 Grad,null,null,Teileinspeisung (einschließlich Eigenverbrauch),"Gewerbe, Handel und Dienstleistungen",null,null,7.671491,47.622216
SEE938852588233,SEL948238774327,Saarland,Saarpfalz-Kreis,10045112,66440,Blieskastel,2019-10-28,2012-06-29,In Betrieb,Aktiviert,405.39,353.8,1746,West,5 - 20 Grad,Ost,5 - 20 Grad,Volleinspeisung,"Gewerbe, Handel und Dienstleistungen",null,null,7.267770,49.240924
SEE919605628956,SEL929364838497,Nordrhein-Westfalen,Coesfeld,05558024,59348,Lüdinghausen,2020-12-02,2010-03-24,In Betrieb,Aktiviert,99.9,89.3,540,Süd-West,5 - 20 Grad,null,null,Volleinspeisung,Landwirtschaft,null,null,7.414800,51.775700
SEE908219132331,SEL953193861685,Niedersachsen,Region Hannover,03241001,30519,Hannover,2019-06-24,2018-09-28,In Betrieb,Aktiviert,99.55,80,362,Süd,5 - 20 Grad,null,null,Teileinspeisung (einschließlich Eigenverbrauch),"Gewerbe, Handel und Dienstleistungen",9.9,9.9,9.787853,52.327482
SEE988197862345,SEL922169365083,Baden-Württemberg,Rastatt,08216007,77815,Bühl,2019-08-20,2012-06-29,In Betrieb,Aktiviert,220.5,199.8,900,Süd,21 - 40 Grad,null,null,Volleinspeisung,"Gewerbe, Handel und Dienstleistungen",null,null,8.125174,48.734799
SEE988600535668,SEL989217897774,Rheinland-Pfalz,Eifelkreis Bitburg-Prüm,07232008,54673,Bauler,2020-04-26,2009-10-15,In Betrieb,Aktiviert,99.9,89.91,500,Süd-West,21 - 40 Grad,Süd,41 - 60 Grad,Volleinspeisung,Landwirtschaft,null,null,6.212651,49.966659
SEE938705899240,SEL990157369757,Brandenburg,Ostprignitz-Ruppin,12068320,16816,Neuruppin,2024-11-05,2024-11-05,In Betrieb,Aktiviert,92.02,66.6,214,Süd,5 - 20 Grad,null,null,Teileinspeisung (einschließlich Eigenverbrauch),"Gewerbe, Handel und Dienstleistungen",null,null,12.785809,52.919683
SEE942121758579,SEL977376014637,Baden-Württemberg,Karlsruhe,08212000,76185,Karlsruhe,2021-01-29,2011-11-28,In Betrieb,Aktiviert,83.64,75,492,Süd-West,5 - 20 Grad,null,null,Volleinspeisung,"Gewerbe, Handel und Dienstleistungen",null,null,8.354297,49.002075
SEE977291920044,SEL903904878402,Bayern,Bad Kissingen,09672161,97797,Wartmannsroth,2022-08-08,2022-08-04,In Betrieb,Aktiviert,6496.875,6105,17325,Süd,21 - 40 Grad,null,null,Volleinspeisung,null,2800,2800,9.787370,50.186760
SEE904042201114,SEL989177732498,Brandenburg,Barnim,12060149,16248,Lunow-Stolzenhagen,2019-02-11,2019-01-29,In Betrieb,Aktiviert,732.01,651,2062,Ost,5 - 20 Grad,West,5 - 20 Grad,Volleinspeisung,Landwirtschaft,null,null,14.103779,52.915402
SEE995979571005,SEL929947086680,Baden-Württemberg,Ulm,08421000,89079,Ulm,2023-11-17,2023-10-31,In Betrieb,Aktiviert,609.26,550,1486,Ost-West,5 - 20 Grad,null,null,Teileinspeisung (einschließlich Eigenverbrauch),"Gewerbe, Handel und Dienstleistungen",null,null,9.910585,48.353163
SEE937596271319,SEL976372183293,Nordrhein-Westfalen,Mettmann,05158026,40789,Monheim,2019-08-19,2010-06-29,In Betrieb,Aktiviert,45.8,42,248,Süd,21 - 40 Grad,null,null,Volleinspeisung,"Gewerbe, Handel und Dienstleistungen",null,null,6.888043,51.103772
SEE985383403092,SEL952229239412,Hessen,Darmstadt,06411000,64291,Darmstadt,2020-04-15,2009-11-05,In Betrieb,Aktiviert,36.75,32.2,210,Süd,21 - 40 Grad,null,null,Volleinspeisung,Öffentliches Gebäude,null,null,8.663333,49.902958
SEE904070270762,SEL985618418839,Baden-Württemberg,Rems-Murr-Kreis,08119069,71579,Spiegelberg,2021-01-28,2010-06-18,In Betrieb,Aktiviert,37.26,37.26,null,Süd,21 - 40 Grad,null,null,Volleinspeisung,Landwirtschaft,null,null,9.271460,49.017171
SEE990060690788,SEL986832913698,Sachsen,Erzgebirgskreis,14521500,08352,Raschau-Markersbach,2020-06-11,2015-01-20,In Betrieb,Aktiviert,112.5,112.5,500,Süd,5 - 20 Grad,null,null,Teileinspeisung (einschließlich Eigenverbrauch),"Gewerbe, Handel und Dienstleistungen",null,null,12.831842,50.546221
SEE963402121271,SEL929671409533,Rheinland-Pfalz,Alzey-Worms,07331012,55237,Bornheim,2019-12-23,2011-11-25,In Betrieb,Aktiviert,80.04,72.5,348,Süd,5 - 20 Grad,null,null,Volleinspeisung,Öffentliches Gebäude,null,null,8.064933,49.781553
SEE936628513342,SEL990199241028,Niedersachsen,Vechta,03460009,49377,Vechta,2021-03-16,2019-08-29,In Betrieb,Aktiviert,37.17,36,118,Süd,5 - 20 Grad,null,null,Teileinspeisung (einschließlich Eigenverbrauch),Landwirtschaft,null,null,8.265763,52.773328
SEE989207875638,SEL950970766706,Sachsen-Anhalt,Salzlandkreis,15089310,39418,Staßfurt,2020-01-20,2013-03-28,In Betrieb,Aktiviert,51.94,45,212,Süd-West,21 - 40 Grad,null,null,Volleinspeisung,"Gewerbe, Handel und Dienstleistungen",null,null,11.595217,51.863058
SEE996554684516,SEL969900733299,Schleswig-Holstein,Nordfriesland,01054106,25873,Rantrum,2021-01-15,2005-09-26,In Betrieb,Aktiviert,80.9,80.9,522,Süd,21 - 40 Grad,null,null,Volleinspeisung,Landwirtschaft,null,null,9.134300,54.453509
SEE940217771945,SEL961693305790,Bayern,Neustadt a.d. Waldnaab,09374147,92714,Pleystein,2021-01-11,2013-11-26,In Betrieb,Aktiviert,105.6,104,412,West,5 - 20 Grad,Ost,5 - 20 Grad,Teileinspeisung (einschließlich Eigenverbrauch),Industrie,null,null,12.456900,49.650094
SEE985459999610,SEL964564632094,Brandenburg,Spree-Neiße,12071153,03159,Neiße-Malxetal,2019-06-26,2012-09-25,In Betrieb,Aktiviert,5281.735,5040,20847,Süd-Ost,5 - 20 Grad,null,null,Volleinspeisung,null,null,null,14.630242,51.661797
SEE993520229153,SEL920051291380,Bayern,Kronach,09476154,96268,Mitwitz,2020-05-18,2007-06-21,In Betrieb,Aktiviert,34.43,34.43,510,Süd-West,5 - 20 Grad,null,null,Volleinspeisung,Landwirtschaft,null,null,11.249653,50.256551
SEE901988275971,SEL908921463358,Niedersachsen,Cloppenburg,03453007,26169,Friesoythe,2023-08-29,2023-08-14,In Betrieb,Aktiviert,88.06,88.06,238,Süd,5 - 20 Grad,Nord,5 - 20 Grad,Volleinspeisung,null,null,null,7.745927,52.979245
SEE973469569411,SEL912828449087,Baden-Württemberg,Lörrach,08336069,79618,Rheinfelden,2021-01-29,2016-01-28,In Betrieb,Aktiviert,36.4,36.4,140,Ost-West,21 - 40 Grad,null,null,Teileinspeisung (einschließlich Eigenverbrauch),"Gewerbe, Handel und Dienstleistungen",null,null,7.791570,47.591824
SEE929161549251,SEL921107066914,Baden-Württemberg,Ostalbkreis,08136027,74417,Gschwend,2020-01-31,2013-09-19,In Betrieb,Aktiviert,36,36,146,Süd,41 - 60 Grad,null,null,Teileinspeisung (einschließlich Eigenverbrauch),Öffentliches Gebäude,null,null,9.744284,48.932447
SEE998238916807,SEL959110645697,Bayern,Erlangen-Höchstadt,09572143,96172,Mühlhausen,2020-08-03,2017-06-30,In Betrieb,Aktiviert,218.89,197,826,Süd-Ost,5 - 20 Grad,Nord-West,5 - 20 Grad,Teileinspeisung (einschließlich Eigenverbrauch),"Gewerbe, Handel und Dienstleistungen",null,null,10.783089,49.755494
SEE944479746895,SEL977533401546,Thüringen,Nordhausen,16062041,99734,Nordhausen,2021-01-20,2010-09-30,In Betrieb,Aktiviert,72,64.6,298,Süd,21 - 40 Grad,null,null,Teileinspeisung (einschließlich Eigenverbrauch),"Gewerbe, Handel und Dienstleistungen",null,null,10.815878,51.470315
SEE990194733375,SEL978550360038,Nordrhein-Westfalen,Gelsenkirchen,05513000,45879,Gelsenkirchen,2021-01-28,2010-12-16,In Betrieb,Aktiviert,43.11,37,232,Süd,5 - 20 Grad,null,null,Volleinspeisung,"Gewerbe, Handel und Dienstleistungen",null,null,7.095281,51.509984
SEE951155096472,SEL905677813390,Hessen,Lahn-Dill-Kreis,06532020,35764,Sinn,2023-10-27,2022-11-17,In Betrieb,Aktiviert,47.5,47.5,125,Ost-West,5 - 20 Grad,Süd,41 - 60 Grad,Teileinspeisung (einschließlich Eigenverbrauch),"Gewerbe, Handel und Dienstleistungen",null,null,8.331781,50.646728
SEE962315886468,SEL914324840535,Schleswig-Holstein,Nordfriesland,01054091,25845,Nordstrand,2020-10-28,2017-04-18,In Betrieb,Aktiviert,70.98,64,273,Süd-West,5 - 20 Grad,null,null,Teileinspeisung (einschließlich Eigenverbrauch),Landwirtschaft,null,null,8.903540,54.494201
SEE961586906356,SEL938435655994,Sachsen,Görlitz,14626310,02763,Zittau,2020-11-06,2011-10-10,In Betrieb,Aktiviert,64.68,60,264,Süd-Ost,21 - 40 Grad,null,null,Volleinspeisung,Industrie,null,null,14.836107,50.908473
SEE917608318799,SEL999849278339,Bayern,München,09184119,85748,Garching,2020-12-11,2010-06-29,In Betrieb,Aktiviert,30.8,30.8,141,Süd,5 - 20 Grad,null,null,Volleinspeisung,Haushalt,null,null,11.653631,48.242050
SEE972409440483,SEL980640491256,Bayern,Passau,09275156,94110,Wegscheid,2020-06-09,2010-04-22,In Betrieb,Aktiviert,40.92,40.92,186,Süd,90 Grad (vertikal) ,null,null,Volleinspeisung,"Gewerbe, Handel und Dienstleistungen",null,null,13.786150,48.581023
SEE958457140117,SEL929786887233,Bayern,Kelheim,09273147,84048,Mainburg,2020-07-29,2007-12-21,In Betrieb,Aktiviert,42.5,42.5,250,Süd,5 - 20 Grad,null,null,Volleinspeisung,"Gewerbe, Handel und Dienstleistungen",null,null,11.782306,48.657796
SEE904932699991,SEL997891630761,Brandenburg,Teltow-Fläming,12072169,14913,Jüterbog,2024-04-10,2024-04-05,In Betrieb,Aktiviert,226.58,225,590,Süd-West,21 - 40 Grad,Süd-Ost,5 - 20 Grad,Teileinspeisung (einschließlich Eigenverbrauch),"Gewerbe, Handel und Dienstleistungen",null,null,13.090495,52.008488
SEE905451931937,SEL944185689868,Nordrhein-Westfalen,Unna,05978008,59199,Bönen,2019-07-10,2011-03-25,In Betrieb,Aktiviert,99.9,94,540,Süd,5 - 20 Grad,null,null,Volleinspeisung,Sonstige,null,null,7.755471,51.572522
SEE911231202098,SEL907425495889,Sachsen,Görlitz,14626310,02763,Mittelherwigsdorf,2020-08-03,2020-07-28,In Betrieb,Aktiviert,214.5,207,660,Süd,5 - 20 Grad,Nord,5 - 20 Grad,Volleinspeisung,Landwirtschaft,null,null,14.766994,50.933272
SEE929959463660,SEL931678336866,Bayern,Ostallgäu,09777129,87629,Füssen,2024-12-02,2024-11-11,In Betrieb,Aktiviert,236.74,220,532,Ost-West,5 - 20 Grad,null,null,Teileinspeisung (einschließlich Eigenverbrauch),"Gewerbe, Handel und Dienstleistungen",null,null,10.682690,47.567830
SEE920790560761,SEL969736703541,Niedersachsen,Gifhorn,03151025,38524,Sassenburg,2021-01-26,2011-12-28,In Betrieb,Aktiviert,93.48,87.5,492,Süd,5 - 20 Grad,null,null,Volleinspeisung,"Gewerbe, Handel und Dienstleistungen",null,null,10.602392,52.509755
SEE975710271968,SEL906607876782,Bayern,Tirschenreuth,09377154,95643,Tirschenreuth,2023-02-18,2023-01-01,In Betrieb,Aktiviert,297.04,297.04,752,Süd,5 - 20 Grad,null,null,Teileinspeisung (einschließlich Eigenverbrauch),Landwirtschaft,null,null,12.381470,49.865610
SEE923893384708,SEL966596024618,Brandenburg,Ostprignitz-Ruppin,12068324,16845,Neustadt,2023-09-13,2023-09-12,In Betrieb,Aktiviert,545.94,462,1348,Nord-West,5 - 20 Grad,Süd-Ost,5 - 20 Grad,Volleinspeisung,Öffentliches Gebäude,null,null,12.432191,52.855988
SEE912136631211,SEL925214821343,Bayern,Aschaffenburg,09671136,63801,Kleinostheim,2021-01-28,2010-04-21,In Betrieb,Aktiviert,69.6,69.6,232,Süd,41 - 60 Grad,null,null,Volleinspeisung,Industrie,null,null,9.039683,50.024707
SEE906090471389,SEL976945202550,Thüringen,Saalfeld-Rudolstadt,16073077,07318,Saalfeld,2025-07-17,2025-06-12,In Betrieb,Aktiviert,99.645,90,219,Ost-West,5 - 20 Grad,null,null,Teileinspeisung (einschließlich Eigenverbrauch),"Gewerbe, Handel und Dienstleistungen",null,null,11.367628,50.658244
SEE964152327326,SEL987455837255,Baden-Württemberg,Emmendingen,08316020,79341,Kenzingen,2019-10-04,2012-11-08,In Betrieb,Aktiviert,60.025,49.91,245,Süd-Ost,21 - 40 Grad,null,null,Teileinspeisung (einschließlich Eigenverbrauch),"Gewerbe, Handel und Dienstleistungen",null,null,7.767621,48.201823
SEE920467161963,SEL959114565243,Baden-Württemberg,Göppingen,08117038,73098,Rechberghausen,2019-03-29,2019-03-18,In Betrieb,Aktiviert,98.21,82.8,322,Ost,5 - 20 Grad,null,null,Teileinspeisung (einschließlich Eigenverbrauch),"Gewerbe, Handel und Dienstleistungen",null,null,9.637000,48.726000
SEE904033355802,SEL976257839574,Bayern,Neumarkt i.d. OPf.,09373112,92334,Berching,2019-04-14,2011-06-22,In Betrieb,Aktiviert,334.75,314,1339,Süd,21 - 40 Grad,Süd-West,21 - 40 Grad,Volleinspeisung,Landwirtschaft,null,null,11.465373,49.067987
SEE918508893447,SEL945891806587,Thüringen,Gera,16052000,07548,Gera,2025-03-11,2025-03-07,In Betrieb,Aktiviert,45,40,100,Süd-Ost,5 - 20 Grad,null,null,Teileinspeisung (einschließlich Eigenverbrauch),"Gewerbe, Handel und Dienstleistungen",15.36,15.36,12.061602,50.888521
SEE966040676332,SEL903149593917,Baden-Württemberg,Freudenstadt,08237019,72280,Dornstetten,2023-08-29,2023-05-20,In Betrieb,Aktiviert,67.875,50,181,Nord-West,5 - 20 Grad,null,null,Volleinspeisung,"Gewerbe, Handel und Dienstleistungen",null,null,8.504302,48.484303
SEE975272779797,SEL902949443606,Bayern,Mühldorf a. Inn,09183118,83559,Mittergars,2025-11-12,2022-06-23,In Betrieb,Aktiviert,208.845,185,459,Süd,5 - 20 Grad,null,null,Volleinspeisung,null,null,null,12.339430,48.155590
SEE985401966752,SEL929694943229,Sachsen-Anhalt,Stendal,15090070,39629,Bismark,2020-07-07,2010-06-30,In Betrieb,Aktiviert,99.9,86.6,555,Süd,21 - 40 Grad,West,41 - 60 Grad,Volleinspeisung,Landwirtschaft,null,null,11.994815,52.904216
SEE940176873117,SEL935993747598,Bayern,Regen,09276126,94259,Kirchberg i.Wald,2020-11-23,2006-04-13,In Betrieb,Aktiviert,53.46,45,324,Süd,5 - 20 Grad,null,null,Volleinspeisung,Landwirtschaft,null,null,13.165154,48.892127
SEE985138082466,SEL951598366699,Bayern,Ostallgäu,09777154,87634,Obergünzburg,2020-04-14,2004-01-26,In Betrieb,Aktiviert,93.5,93.5,340,Süd-West,5 - 20 Grad,null,null,Volleinspeisung,Industrie,null,null,10.423272,47.851564
SEE933459516788,SEL969713082379,Bayern,Hof,09475142,95176,Konradsreuth,2025-01-22,2025-01-20,In Betrieb,Aktiviert,85.425,72,201,Süd-Ost,5 - 20 Grad,Süd-Ost,21 - 40 Grad,Volleinspeisung,Landwirtschaft,null,null,11.846300,50.259107
SEE930492862483,SEL990416169081,Niedersachsen,Diepholz,03251002,27330,Asendorf,2019-02-08,2009-10-28,In Betrieb,Aktiviert,110.25,90,630,Süd-West,21 - 40 Grad,null,null,Volleinspeisung,"Gewerbe, Handel und Dienstleistungen",null,null,8.976871,52.761322
SEE937028944705,SEL963926131442,Nordrhein-Westfalen,Hochsauerlandkreis,05958004,59821,Arnsberg,2020-05-15,2006-03-23,In Betrieb,Aktiviert,51.975,41.4,315,Süd,21 - 40 Grad,null,null,Volleinspeisung,"Gewerbe, Handel und Dienstleistungen",null,null,8.070014,51.407466
SEE992058171217,SEL971806939002,Bayern,Regen,09276117,94249,Bodenmais,2025-07-01,2025-04-04,In Betrieb,Aktiviert,75.53,75.53,182,West,5 - 20 Grad,Ost,5 - 20 Grad,Teileinspeisung (einschließlich Eigenverbrauch),"Gewerbe, Handel und Dienstleistungen",10,10,13.103168,49.063407
SEE944408890859,SEL928832684574,Bayern,Dillingen a.d. Donau,09773153,89441,Medlingen,2024-04-25,2024-02-01,In Betrieb,Aktiviert,140.25,132,330,Ost-West,21 - 40 Grad,null,null,Teileinspeisung (einschließlich Eigenverbrauch),Landwirtschaft,25,25,10.333704,48.574392
SEE915673387177,SEL923305720698,Nordrhein-Westfalen,Gütersloh,05754040,33803,Steinhagen,2020-09-30,2009-08-07,In Betrieb,Aktiviert,46,46,711,West,21 - 40 Grad,null,null,Volleinspeisung,"Gewerbe, Handel und Dienstleistungen",null,null,8.434628,52.011045
SEE937182034113,SEL900691797435,Saarland,Merzig-Wadern,10042112,66679,Losheim,2020-12-30,2011-07-01,In Betrieb,Aktiviert,33.57,33.57,1544,Süd-Ost,21 - 40 Grad,null,null,Volleinspeisung,"Gewerbe, Handel und Dienstleistungen",null,null,6.745558,49.505064
SEE920866622775,SEL954644957872,Bayern,Pfaffenhofen a.d. Ilm,09186125,85302,Gerolsbach,2020-11-25,2006-06-14,In Betrieb,Aktiviert,70,70,400,Süd,21 - 40 Grad,null,null,Volleinspeisung,Landwirtschaft,null,null,11.352894,48.529065
SEE969675875576,SEL901383338547,Nordrhein-Westfalen,Mönchengladbach,05116000,41189,Mönchengladbach,2020-03-10,2009-10-29,In Betrieb,Aktiviert,30.4,30.4,152,Süd-West,41 - 60 Grad,null,null,Volleinspeisung,Sonstige,null,null,6.392182,51.114715
SEE953327423260,SEL975526104351,Nordrhein-Westfalen,Lippe,05766040,32791,Lage,2021-10-26,2021-07-21,In Betrieb,Aktiviert,99.4,88,280,Süd,5 - 20 Grad,null,null,Volleinspeisung,"Gewerbe, Handel und Dienstleistungen",null,null,8.811247,51.989320
SEE939972209305,SEL926190308279,Schleswig-Holstein,Pinneberg,01056050,22880,Wedel,2019-08-06,2011-06-09,In Betrieb,Aktiviert,38.77,36,166,Süd-West,21 - 40 Grad,null,null,Volleinspeisung,Öffentliches Gebäude,null,null,9.710445,53.587562
SEE925273845960,SEL969393008317,Baden-Württemberg,Heidelberg,08221000,69121,Heidelberg,2024-04-12,2023-11-15,In Betrieb,Aktiviert,75.44,75,184,Ost-West,21 - 40 Grad,null,null,Teileinspeisung (einschließlich Eigenverbrauch),"Gewerbe, Handel und Dienstleistungen",null,null,8.678871,49.437503
SEE944957519539,SEL975913406341,Schleswig-Holstein,Nordfriesland,01054088,25899,Niebüll,2020-01-08,2011-07-12,In Betrieb,Aktiviert,41.82,36.9,204,Süd,5 - 20 Grad,null,null,Teileinspeisung (einschließlich Eigenverbrauch),Haushalt,null,null,8.786833,54.831493
SEE967576705008,SEL992368122947,Bayern,Aichach-Friedberg,09771113,86551,Aichach,2021-01-12,2011-11-10,In Betrieb,Aktiviert,51.74,51.74,298,Ost-West,21 - 40 Grad,null,null,Volleinspeisung,null,null,null,11.139996,48.487726
SEE943540518508,SEL928556049314,Rheinland-Pfalz,Frankenthal (Pfalz),07311000,67227,Frankenthal,2021-02-01,2012-11-30,In Betrieb,Aktiviert,99.17,90,422,Süd,5 - 20 Grad,null,null,Teileinspeisung (einschließlich Eigenverbrauch),null,null,null,8.350737,49.543464
SEE994789914514,SEL924638419709,Rheinland-Pfalz,Rhein-Hunsrück-Kreis,07140067,55481,Kirchberg,2019-02-25,2010-05-26,In Betrieb,Aktiviert,81.9,81.9,390,West,5 - 20 Grad,Ost,5 - 20 Grad,Volleinspeisung,Sonstige,50,50,7.424000,49.961000
SEE919586356008,SEL907759692688,Bayern,Weilheim-Schongau,09190142,82398,Polling,2021-01-27,2009-12-30,In Betrieb,Aktiviert,35.89,30.1,194,Süd,21 - 40 Grad,null,null,Volleinspeisung,Landwirtschaft,null,null,11.151528,47.813016
SEE938425486393,SEL957470897114,Bayern,Landsberg am Lech,09181143,86944,Unterdießen,2023-06-29,2023-06-29,In Betrieb,Aktiviert,1001,1001,2200,Süd,21 - 40 Grad,null,null,Volleinspeisung,null,null,null,10.853844,47.990767
SEE997294030991,SEL919795206705,Bayern,Kulmbach,09477164,96197,Wonsees,2020-11-15,2004-08-02,In Betrieb,Aktiviert,95.04,73.6,1760,Süd,21 - 40 Grad,null,null,Volleinspeisung,null,null,null,11.286710,49.996146
SEE995956252521,SEL969265985364,Bayern,Dingolfing-Landau,09279113,94428,Eichendorf,2019-02-05,2009-07-17,In Betrieb,Aktiviert,47.52,47.52,288,Süd-Ost,21 - 40 Grad,null,null,Volleinspeisung,Landwirtschaft,null,null,12.022886,48.167085
SEE955542709648,SEL959353349932,Niedersachsen,Hildesheim,03254011,31199,Diekholzen,2023-07-17,2023-07-03,In Betrieb,Aktiviert,151.875,133.2,375,Süd-West,21 - 40 Grad,null,null,Volleinspeisung,Landwirtschaft,null,null,9.924503,52.097982
SEE906721879805,SEL902661065452,Schleswig-Holstein,Nordfriesland,01054034,25924,Friedrich-Wilhelm-Lübke-Koog,2020-02-11,2010-06-30,In Betrieb,Aktiviert,48.84,45,264,Süd,21 - 40 Grad,null,null,Volleinspeisung,Landwirtschaft,null,null,8.632416,54.863145
SEE934081818097,SEL948821143219,Bayern,Neustadt a.d. Aisch-Bad Windsheim,09575155,97258,Oberickelsheim,2022-01-26,2010-04-21,In Betrieb,Aktiviert,57.35,57.35,310,Ost-West,5 - 20 Grad,null,null,Volleinspeisung,Landwirtschaft,null,null,10.140397,49.588103
SEE996489982923,SEL901471719012,Schleswig-Holstein,Schleswig-Flensburg,01059075,24837,Schleswig,2025-04-09,2025-04-01,In Betrieb,Aktiviert,362.44,330,884,Süd-Ost,41 - 60 Grad,Nord-West,41 - 60 Grad,Teileinspeisung (einschließlich Eigenverbrauch),null,null,null,9.557247,54.519922
SEE933601322687,SEL945105992396,Nordrhein-Westfalen,Soest,05974040,59494,Soest,2019-08-27,2010-04-13,In Betrieb,Aktiviert,75.375,66.1,335,Süd,41 - 60 Grad,null,null,Volleinspeisung,Industrie,null,null,8.132809,51.578613
SEE960507396344,SEL968651034051,Niedersachsen,Osnabrück,03459026,49586,Merzen,2020-11-14,2012-03-29,In Betrieb,Aktiviert,52.17,51,224,Süd-West,5 - 20 Grad,West,5 - 20 Grad,Volleinspeisung,Landwirtschaft,null,null,7.815408,52.484564
SEE920895482159,SEL949884126980,Bayern,Aichach-Friedberg,09771144,86556,Kühbach,2021-01-28,2012-10-25,In Betrieb,Aktiviert,38.76,34,152,Süd,21 - 40 Grad,null,null,Teileinspeisung (einschließlich Eigenverbrauch),"Gewerbe, Handel und Dienstleistungen",null,null,11.176566,48.493244
SEE976913402753,SEL929855126119,Sachsen-Anhalt,Saalekreis,15088305,06268,Querfurt,2020-06-09,2012-10-25,In Betrieb,Aktiviert,73.44,72,306,Süd-Ost,5 - 20 Grad,Nord-Ost,5 - 20 Grad,Volleinspeisung,"Gewerbe, Handel und Dienstleistungen",null,null,11.604598,51.389310
SEE925060414997,SEL998735300901,Rheinland-Pfalz,Neuwied,07138044,53577,Neustadt,2020-12-02,2011-12-29,In Betrieb,Aktiviert,62.56,57,782,null,null,Ost-West,5 - 20 Grad,Volleinspeisung,Landwirtschaft,null,null,7.460620,50.584168
SEE961792329345,SEL972184437005,Hessen,Groß-Gerau,06433014,65468,Trebur,2020-10-11,2017-08-28,In Betrieb,Aktiviert,63.72,57.5,216,Süd,5 - 20 Grad,Nord,5 - 20 Grad,Teileinspeisung (einschließlich Eigenverbrauch),Landwirtschaft,null,null,8.395591,49.882939
SEE988152766497,SEL965903150019,Mecklenburg-Vorpommern,Vorpommern-Greifswald,13075006,17506,Bandelin,2022-09-26,2015-07-27,Endgültig stillgelegt,Aktiviert,749.7,600,2380,Ost-West,5 - 20 Grad,null,null,Volleinspeisung,Landwirtschaft,null,null,13.388215,53.959516
SEE939188973625,SEL908880373910,Baden-Württemberg,Reutlingen,08415059,72793,Pfullingen,2024-10-15,2023-12-22,In Betrieb,Aktiviert,51.17,50,119,Ost-West,5 - 20 Grad,null,null,Teileinspeisung (einschließlich Eigenverbrauch),Sonstige,11.04,10,9.234918,48.479699
SEE973207236599,SEL904596879418,Baden-Württemberg,Alb-Donau-Kreis,08425020,89143,Blaubeuren,2019-08-12,2009-11-11,In Betrieb,Aktiviert,154.56,154.56,672,Süd,21 - 40 Grad,null,null,Volleinspeisung,Landwirtschaft,null,null,9.815072,48.423695
SEE907678723784,SEL990205659540,Berlin,Berlin,11000000,13156,Berlin,2020-12-08,2011-11-28,In Betrieb,Aktiviert,46,42,200,Süd-Ost,5 - 20 Grad,null,null,Volleinspeisung,Öffentliches Gebäude,null,null,13.418165,52.587598
SEE937244600164,SEL995036629892,Bayern,München,09184148,82008,Unterhaching,2025-08-19,2025-07-15,In Betrieb,Aktiviert,55.965,46,120,Süd-West,21 - 40 Grad,Ost-West,21 - 40 Grad,Teileinspeisung (einschließlich Eigenverbrauch),"Gewerbe, Handel und Dienstleistungen",9.22,9.22,11.604455,48.074383
SEE995754904738,SEL934021477827,Sachsen,Sächsische Schweiz-Osterzgebirge,14628170,01776,Hermsdorf,2020-12-07,2012-06-30,In Betrieb,Aktiviert,107.52,100.4,512,Süd-West,5 - 20 Grad,Nord-Ost,5 - 20 Grad,Volleinspeisung,"Gewerbe, Handel und Dienstleistungen",null,null,13.629214,50.764704
SEE958654111347,SEL933232662343,Nordrhein-Westfalen,Kleve,05154012,47608,Geldern,2021-01-05,2012-06-27,In Betrieb,Aktiviert,52.92,48,216,Süd-West,5 - 20 Grad,Süd-Ost,5 - 20 Grad,Volleinspeisung,Landwirtschaft,null,null,6.362308,51.532670
SEE961077548973,SEL996852181090,Bayern,Unterallgäu,09778214,87784,Westerheim,2020-01-23,2010-06-30,In Betrieb,Aktiviert,58.8,56,784,Ost-West,5 - 20 Grad,null,null,Volleinspeisung,"Gewerbe, Handel und Dienstleistungen",null,null,10.301776,48.017551
SEE958066019194,SEL987657388692,Bayern,Ansbach,09571130,91598,Colmberg,2021-01-10,2010-06-30,In Betrieb,Aktiviert,34.965,33,189,Süd-West,5 - 20 Grad,null,null,Volleinspeisung,Landwirtschaft,null,null,10.389025,49.361819
SEE967457245616,SEL958437248154,Bayern,Passau,09275150,94136,Thyrnau,2020-02-12,2010-06-30,In Betrieb,Aktiviert,48.72,45.5,240,Süd,5 - 20 Grad,null,null,Volleinspeisung,Öffentliches Gebäude,null,null,13.540277,48.618174
SEE925061621967,SEL900578742541,Brandenburg,Havelland,12063088,14662,Friesack,2019-11-14,2019-08-16,In Betrieb,Aktiviert,89.9,80,290,Süd,5 - 20 Grad,Nord-Ost,5 - 20 Grad,Teileinspeisung (einschließlich Eigenverbrauch),"Gewerbe, Handel und Dienstleistungen",null,null,12.574650,52.732211
SEE920282214141,SEL907499604637,Niedersachsen,Cloppenburg,03453010,49699,Lindern,2021-02-09,2023-12-30,In Betrieb,Aktiviert,749.98,660,1948,Süd-Ost,5 - 20 Grad,Nord-West,5 - 20 Grad,Volleinspeisung,Landwirtschaft,null,null,7.761703,52.820502
SEE986083502467,SEL983802735755,Bayern,Ansbach,09571115,91572,Bechhofen,2025-04-09,2024-06-24,In Betrieb,Aktiviert,50.25,50.25,118,Süd,21 - 40 Grad,West,21 - 40 Grad,Teileinspeisung (einschließlich Eigenverbrauch),Industrie,null,null,10.563148,49.162542
SEE925952070164,SEL996610615805,Baden-Württemberg,Göppingen,08117024,73312,Geislingen,2025-06-25,2025-06-12,In Betrieb,Aktiviert,90.09,90,198,Süd,21 - 40 Grad,null,null,Volleinspeisung,"Gewerbe, Handel und Dienstleistungen",null,null,9.842255,48.629990
SEE903295932233,SEL950302478987,Niedersachsen,Oldenburg,03458014,27793,Wildeshausen,2021-04-06,2011-08-30,In Betrieb,Aktiviert,36.48,33,192,Ost,5 - 20 Grad,null,null,Volleinspeisung,"Gewerbe, Handel und Dienstleistungen",null,null,8.416535,52.884779
SEE959145382826,SEL996711829422,Bayern,Cham,09372175,93497,Willmering,2020-04-22,2020-01-28,In Betrieb,Aktiviert,52.325,50,161,West,5 - 20 Grad,null,null,Volleinspeisung,"Gewerbe, Handel und Dienstleistungen",null,null,12.672506,49.245705
SEE923314494696,SEL913327387566,Niedersachsen,Cloppenburg,03453008,49681,Garrel,2023-07-04,2010-06-29,In Betrieb,Aktiviert,53.5,50,297,Ost-West,5 - 20 Grad,Süd-Ost,5 - 20 Grad,Volleinspeisung,"Gewerbe, Handel und Dienstleistungen",null,null,8.025599,52.953109
SEE997806225914,SEL988653776865,Baden-Württemberg,Ortenaukreis,08317009,77791,Berghaupten,2025-04-14,2025-04-14,In Betrieb,Aktiviert,49.2,49.2,120,Süd,5 - 20 Grad,null,null,Teileinspeisung (einschließlich Eigenverbrauch),"Gewerbe, Handel und Dienstleistungen",50,50,7.998132,48.407328
SEE901459737199,SEL962161871557,Thüringen,Saale-Orla-Kreis,16075073,07806,Neustadt,2024-12-18,2024-12-03,In Betrieb,Aktiviert,689.04,625,1188,Süd,5 - 20 Grad,null,null,Teileinspeisung (einschließlich Eigenverbrauch),null,null,null,11.781985,50.742056
SEE948017609239,SEL920877411498,Rheinland-Pfalz,Zweibrücken,07320000,66482,Zweibrücken,2022-12-01,2023-02-14,In Betrieb,Aktiviert,73.26,70,198,Süd-Ost,21 - 40 Grad,null,null,Teileinspeisung (einschließlich Eigenverbrauch),Industrie,null,null,7.396954,49.228182
SEE927573152601,SEL988789210301,Bayern,Passau,09275141,94060,Pocking,2020-06-29,2009-11-20,In Betrieb,Aktiviert,34.38,34.38,191,Süd-Ost,5 - 20 Grad,Süd-West,21 - 40 Grad,Volleinspeisung,Landwirtschaft,null,null,13.263503,48.373707
SEE951978513095,SEL935384717117,Baden-Württemberg,Böblingen,08115042,71277,Rutesheim,2020-07-08,2020-06-29,In Betrieb,Aktiviert,92.07,90,279,Ost-West,5 - 20 Grad,Ost-West,5 - 20 Grad,Teileinspeisung (einschließlich Eigenverbrauch),null,null,null,8.906863,48.814755
SEE918217419617,SEL910367129378,Bayern,Aichach-Friedberg,09771146,86415,Mering,2024-11-17,2024-10-24,In Betrieb,Aktiviert,82,82,202,Ost,41 - 60 Grad,West,41 - 60 Grad,Volleinspeisung,Haushalt,null,null,10.988712,48.272380
SEE986536623244,SEL937210119485,Bayern,Eichstätt,09176139,85092,Kösching,2020-08-12,2007-05-04,In Betrieb,Aktiviert,36.725,32.5,565,Süd,5 - 20 Grad,null,null,Volleinspeisung,Öffentliches Gebäude,null,null,11.496620,48.809679
SEE944917906638,SEL956446718460,Bayern,Pfaffenhofen a.d. Ilm,09186125,85302,Gerolsbach,2020-06-28,2010-06-29,In Betrieb,Aktiviert,32.24,31.55,124,Süd,21 - 40 Grad,null,null,Volleinspeisung,Landwirtschaft,null,null,11.338210,48.460184
SEE921151751774,SEL949474649523,Sachsen,Nordsachsen,14730030,04886,Beilrode,2019-03-08,2009-08-03,In Betrieb,Aktiviert,65.52,64.4,1568,Süd,5 - 20 Grad,null,null,Volleinspeisung,Landwirtschaft,null,null,12.975807,51.651775
SEE975127685778,SEL991119449623,Hessen,Lahn-Dill-Kreis,06532005,35716,Dietzhölztal,2021-01-18,2012-08-23,In Betrieb,Aktiviert,50.715,50.715,207,Süd-West,21 - 40 Grad,null,null,Teileinspeisung (einschließlich Eigenverbrauch),"Gewerbe, Handel und Dienstleistungen",null,null,8.307189,50.835944
SEE920958183450,SEL943251393012,Baden-Württemberg,Ludwigsburg,08118048,71638,Ludwigsburg,2024-04-25,2023-07-11,In Betrieb,Aktiviert,43.445,40,107,Süd,5 - 20 Grad,Ost-West,5 - 20 Grad,Teileinspeisung (einschließlich Eigenverbrauch),"Gewerbe, Handel und Dienstleistungen",null,null,9.187464,48.894552
SEE942918420375,SEL966115887250,Hessen,Wetteraukreis,06440018,61239,Ober-Mörlen,2025-09-10,2025-08-29,In Betrieb,Aktiviert,59.15,50,130,Süd-West,5 - 20 Grad,Nord-Ost,5 - 20 Grad,Teileinspeisung (einschließlich Eigenverbrauch),"Gewerbe, Handel und Dienstleistungen",32.4,30,8.689763,50.357059
SEE925164364259,SEL998980577103,Schleswig-Holstein,Ostholstein,01055028,23714,Malente,2021-01-15,2020-12-09,In Betrieb,Aktiviert,59.8,59.8,184,Ost,5 - 20 Grad,West,5 - 20 Grad,Teileinspeisung (einschließlich Eigenverbrauch),Landwirtschaft,null,null,10.519932,54.145477
SEE974302332544,SEL960864751015,Thüringen,Sömmerda,16068058,99631,Weißensee,2020-12-07,2012-06-26,In Betrieb,Aktiviert,393.2,391,3190,Süd,5 - 20 Grad,Nord,5 - 20 Grad,Volleinspeisung,Industrie,null,null,11.073173,51.200005
SEE965345702524,SEL954839569958,Baden-Württemberg,Breisgau-Hochschwarzwald,08315048,79258,Hartheim,2024-07-17,2024-06-10,In Betrieb,Aktiviert,39.99,39.99,93,Süd,5 - 20 Grad,null,null,Teileinspeisung (einschließlich Eigenverbrauch),Öffentliches Gebäude,19.8,19.8,7.630356,47.934162
SEE977925726578,null,Bayern,Bayreuth,09472116,95460,Bad Berneck,2025-06-03,null,In Planung,Aktiviert,137.7,120,306,West,21 - 40 Grad,Ost,21 - 40 Grad,Volleinspeisung,Sonstige,null,null,11.667211,50.075634
SEE928202191497,SEL981915136193,Hessen,Bergstraße,06431005,68642,Bürstadt,2025-03-24,2025-03-17,In Betrieb,Aktiviert,414.52,360,964,Süd-Ost,5 - 20 Grad,Nord-West,5 - 20 Grad,Volleinspeisung,Landwirtschaft,null,null,5.497664,46.060870
SEE972578857167,SEL976302552373,Bayern,München,09184147,85774,Unterföhring,2021-12-08,2020-08-21,In Betrieb,Aktiviert,149.94,149.94,441,Süd,21 - 40 Grad,null,null,Teileinspeisung (einschließlich Eigenverbrauch),Öffentliches Gebäude,null,null,11.645445,48.185310
SEE978042513355,SEL900688994045,Bayern,Tirschenreuth,09377154,95643,Tirschenreuth,2025-04-15,2024-12-23,In Betrieb,Aktiviert,76.11,60,167,Süd-West,5 - 20 Grad,West,5 - 20 Grad,Teileinspeisung (einschließlich Eigenverbrauch),Landwirtschaft,null,null,12.398949,49.858874
SEE989979536089,SEL949913446867,Niedersachsen,Goslar,03153012,38723,Seesen,2024-09-16,2024-05-23,In Betrieb,Aktiviert,66.36,47,158,West,5 - 20 Grad,Ost,5 - 20 Grad,Teileinspeisung (einschließlich Eigenverbrauch),Öffentliches Gebäude,null,null,10.189357,51.848787
SEE943378375250,SEL985464029166,Baden-Württemberg,Schwäbisch Hall,08127014,74564,Crailsheim,2019-06-20,2011-12-14,In Betrieb,Aktiviert,200.22,182.5,852,Süd-West,21 - 40 Grad,null,null,Volleinspeisung,null,null,null,10.032270,49.170600
SEE939682148499,SEL953015175556,Niedersachsen,Osnabrück,03459008,49191,Belm,2021-01-27,2011-12-23,In Betrieb,Aktiviert,94.56,78.15,394,Süd,21 - 40 Grad,null,null,Volleinspeisung,Landwirtschaft,null,null,8.187088,52.287378
SEE926915489436,SEL977465635224,Sachsen-Anhalt,Mansfeld-Südharz,15087386,06317,Seegebiet Mansfelder Land,2019-06-05,2009-12-17,In Betrieb,Aktiviert,222.075,199.5,945,Süd-Ost,5 - 20 Grad,null,null,Volleinspeisung,Landwirtschaft,null,null,11.628438,51.489243
SEE937341876103,SEL928933538653,Bayern,Cham,09372150,93191,Rettenbach,2020-10-29,2020-08-31,In Betrieb,Aktiviert,73.29,55,213,Nord-West,21 - 40 Grad,Süd-Ost,21 - 40 Grad,Volleinspeisung,"Gewerbe, Handel und Dienstleistungen",null,null,12.453755,49.068172
SEE946485156217,SEL987608382915,Nordrhein-Westfalen,Hagen,05914000,58135,Hagen,2019-11-17,2012-10-31,In Betrieb,Aktiviert,42.3,40,180,Süd,5 - 20 Grad,null,null,Volleinspeisung,Öffentliches Gebäude,null,null,7.407068,51.341563
SEE992625237865,SEL979753843922,Thüringen,Gotha,16067029,99867,Gotha,2021-01-22,2013-05-31,In Betrieb,Aktiviert,2622,2622,7714,Süd,21 - 40 Grad,null,null,Volleinspeisung,null,null,null,10.719286,50.950127
SEE921379737994,SEL982450497664,Niedersachsen,Cloppenburg,03453013,26683,Saterland,2023-08-25,2023-08-17,In Betrieb,Aktiviert,99.63,99.63,243,Süd,5 - 20 Grad,Nord,5 - 20 Grad,Volleinspeisung,"Gewerbe, Handel und Dienstleistungen",null,null,7.687133,53.102012
SEE926202497991,SEL948318717237,Niedersachsen,Emsland,03454026,49774,Lähden,2020-12-11,2011-12-30,In Betrieb,Aktiviert,229.07,208.9,935,Süd-West,21 - 40 Grad,Süd-Ost,21 - 40 Grad,Volleinspeisung,Landwirtschaft,null,null,7.656580,52.752952
SEE947774469711,SEL977063480349,Bayern,Deggendorf,09271141,94486,Osterhofen,2019-06-24,2018-06-29,In Betrieb,Aktiviert,269.5,252,980,Süd,21 - 40 Grad,null,null,Volleinspeisung,null,null,null,13.018560,48.697891
SEE927850188934,SEL918683336487,Bayern,Aichach-Friedberg,09771130,86316,Friedberg,2020-10-18,2010-05-28,In Betrieb,Aktiviert,33.48,30.6,186,Süd-Ost,5 - 20 Grad,null,null,Volleinspeisung,Sonstige,null,null,10.949702,48.396895
SEE987253442217,SEL927352083263,Nordrhein-Westfalen,Wesel,05170012,46499,Hamminkeln,2020-09-25,2012-06-29,In Betrieb,Aktiviert,48.75,43.875,250,Ost,21 - 40 Grad,West,21 - 40 Grad,Teileinspeisung (einschließlich Eigenverbrauch),null,null,null,6.608981,51.792642
SEE940419953941,SEL997247774378,Sachsen,Leipzig,14713000,04357,Leipzig,2024-04-24,2023-06-05,In Betrieb,Aktiviert,99.26,86,248,Ost-West,5 - 20 Grad,null,null,Teileinspeisung (einschließlich Eigenverbrauch),"Gewerbe, Handel und Dienstleistungen",null,null,12.397366,51.379338
SEE988072002545,SEL923109205346,Niedersachsen,Lüneburg,03355029,21385,Rehlingen,2019-03-19,2012-06-25,In Betrieb,Aktiviert,185.955,185.955,767,Süd,5 - 20 Grad,West,5 - 20 Grad,Volleinspeisung,Landwirtschaft,null,null,10.161000,53.087000
SEE998934957517,SEL977668233746,Bayern,Unterallgäu,09778149,87749,Hawangen,2023-05-09,2023-04-26,In Betrieb,Aktiviert,686.88,570,1696,West,5 - 20 Grad,Ost,5 - 20 Grad,Teileinspeisung (einschließlich Eigenverbrauch),Industrie,null,null,10.253864,47.964005
SEE962154505339,SEL977754512939,Hessen,Schwalm-Eder-Kreis,06634003,34587,Felsberg,2020-07-16,2020-07-15,In Betrieb,Aktiviert,75.725,33,233,Nord-West,5 - 20 Grad,null,null,Teileinspeisung (einschließlich Eigenverbrauch),"Gewerbe, Handel und Dienstleistungen",null,null,9.437910,51.129032
SEE999069566605,SEL938831031163,Baden-Württemberg,Waldshut,08337070,79807,Lottstetten,2019-06-21,2018-04-25,In Betrieb,Aktiviert,246.4,230,896,Süd,5 - 20 Grad,Süd-West,5 - 20 Grad,Volleinspeisung,Landwirtschaft,null,null,8.564197,47.633663
SEE938772124252,null,Berlin,Berlin,11000000,13509,Berlin,2023-12-11,null,In Planung,Aktiviert,99.68,72,356,Süd-Ost,5 - 20 Grad,null,null,Teileinspeisung (einschließlich Eigenverbrauch),"Gewerbe, Handel und Dienstleistungen",null,null,13.293364,52.580531
SEE952498467820,SEL987916229087,Baden-Württemberg,Reutlingen,08415061,72770,Reutlingen,2020-11-20,2006-12-11,In Betrieb,Aktiviert,55.02,50,262,Süd-West,21 - 40 Grad,null,null,Volleinspeisung,"Gewerbe, Handel und Dienstleistungen",null,null,9.154275,48.491853
SEE992384508091,SEL917684215951,Bayern,Nürnberg,09564000,90480,Nürnberg,2024-03-14,2024-03-12,In Betrieb,Aktiviert,79.54,75,194,Ost-West,5 - 20 Grad,null,null,Teileinspeisung (einschließlich Eigenverbrauch),"Gewerbe, Handel und Dienstleistungen",null,null,11.120707,49.452059
SEE954641401040,SEL973939579292,Niedersachsen,Hildesheim,03254011,31199,Diekholzen,2020-10-08,2012-03-30,In Betrieb,Aktiviert,37.44,34,161,Süd-West,41 - 60 Grad,null,null,Volleinspeisung,Landwirtschaft,null,null,9.900509,52.094124
SEE977703204243,SEL967047405352,Baden-Württemberg,Ostalbkreis,08136065,73529,Schwäbisch Gmünd,2023-04-11,2023-01-31,In Betrieb,Aktiviert,99.75,60,266,Ost-West,5 - 20 Grad,null,null,Teileinspeisung (einschließlich Eigenverbrauch),"Gewerbe, Handel und Dienstleistungen",null,null,9.870922,48.796150
SEE906223940577,SEL944337445878,Schleswig-Holstein,Kiel,01002000,24114,Kiel,2021-10-21,2021-10-07,In Betrieb,Aktiviert,99,80,264,Ost-West,5 - 20 Grad,null,null,Teileinspeisung (einschließlich Eigenverbrauch),"Gewerbe, Handel und Dienstleistungen",8,8,10.126628,54.314773
SEE990451529147,SEL921383795508,Sachsen,Nordsachsen,14730270,04435,Schkeuditz,2019-06-06,2011-08-12,In Betrieb,Aktiviert,58.5,56.7,247,Süd,41 - 60 Grad,null,null,Volleinspeisung,Öffentliches Gebäude,null,null,12.221911,51.395894
SEE907134693392,null,Niedersachsen,Emsland,03454049,48480,Spelle,2024-09-23,null,In Planung,Aktiviert,728.19,728.19,1798,Ost-West,5 - 20 Grad,null,null,Teileinspeisung (einschließlich Eigenverbrauch),Industrie,null,null,7.446549,52.349637
SEE943317765333,SEL996661273252,Bayern,Mühldorf a. Inn,09183128,84453,Mühldorf,2024-01-18,2024-01-18,In Betrieb,Aktiviert,57.4,50,140,Ost-West,5 - 20 Grad,null,null,Teileinspeisung (einschließlich Eigenverbrauch),Öffentliches Gebäude,null,null,12.514474,48.255988
SEE950877698957,SEL952286055178,Bayern,München,09184112,85609,Aschheim,2021-01-27,2011-12-16,In Betrieb,Aktiviert,35.72,34,188,Ost,5 - 20 Grad,Ost,21 - 40 Grad,Volleinspeisung,Öffentliches Gebäude,null,null,11.716166,48.163549
SEE975134416730,SEL912497906379,Mecklenburg-Vorpommern,Rostock,13072105,18195,Tessin,2021-02-01,2010-12-26,In Betrieb,Aktiviert,44.95,40,580,West,5 - 20 Grad,Ost,5 - 20 Grad,Volleinspeisung,"Gewerbe, Handel und Dienstleistungen",null,null,12.441293,54.033717
SEE947457246219,SEL927550302739,Rheinland-Pfalz,Eifelkreis Bitburg-Prüm,07232064,54673,Karlshausen,2023-10-24,2023-10-05,In Betrieb,Aktiviert,19999.8,14773.259,37351,Süd,5 - 20 Grad,null,null,Volleinspeisung,null,null,null,6.230938,50.016197
SEE976014419179,SEL965005678794,Baden-Württemberg,Reutlingen,08415034,72534,Hayingen,2019-07-22,2019-06-28,In Betrieb,Aktiviert,436.14,384.363,1434,Süd,5 - 20 Grad,Nord,5 - 20 Grad,Volleinspeisung,Landwirtschaft,null,null,9.436223,48.304903
SEE932122127030,SEL913257150391,Bayern,Kitzingen,09675116,97355,Castell,2024-01-30,2024-01-30,In Betrieb,Aktiviert,168.51,135,280,Süd-West,21 - 40 Grad,Ost,41 - 60 Grad,Teileinspeisung (einschließlich Eigenverbrauch),"Gewerbe, Handel und Dienstleistungen",null,null,10.352703,49.741514
SEE978533842766,SEL996880768935,Hessen,Hersfeld-Rotenburg,06632001,36211,Alheim,2019-07-15,2012-03-30,In Betrieb,Aktiviert,36.29,36,191,Süd-Ost,21 - 40 Grad,null,null,Teileinspeisung (einschließlich Eigenverbrauch),"Gewerbe, Handel und Dienstleistungen",null,null,9.668097,51.045645
SEE941695786667,SEL920557376413,Bayern,Traunstein,09189154,83301,Traunreut,2020-11-12,2015-03-31,In Betrieb,Aktiviert,211.5,200,846,Süd-Ost,5 - 20 Grad,null,null,Volleinspeisung,null,null,null,12.610136,47.966059
SEE966127268467,SEL927198101213,Baden-Württemberg,Esslingen,08116049,72622,Nürtingen,2021-01-30,2010-06-14,In Betrieb,Aktiviert,89.93,89.93,391,Süd-West,5 - 20 Grad,null,null,Volleinspeisung,"Gewerbe, Handel und Dienstleistungen",null,null,9.353109,48.645527
SEE945975049237,SEL939243761259,Bayern,Rosenheim,09187168,83253,Rimsting,2021-10-13,2010-06-24,In Betrieb,Aktiviert,52,52,208,Süd,null,Süd-West,21 - 40 Grad,Volleinspeisung,Sonstige,null,null,12.351335,47.885924
SEE915626767865,SEL905415865339,Sachsen-Anhalt,Salzlandkreis,15089042,39221,Biere,2020-01-29,2017-12-22,In Betrieb,Aktiviert,686.88,480,2592,West,5 - 20 Grad,Ost,5 - 20 Grad,Volleinspeisung,Landwirtschaft,null,null,11.658974,51.976932
SEE950837301835,SEL925420787655,Berlin,Berlin,11000000,12169,Berlin,2024-06-07,2024-06-06,In Betrieb,Aktiviert,99.45,90,234,Süd,5 - 20 Grad,null,null,Teileinspeisung (einschließlich Eigenverbrauch),"Gewerbe, Handel und Dienstleistungen",null,null,13.330222,52.458275
SEE954369893844,SEL949004317977,Bayern,Main-Spessart,09677148,97753,Karlstadt,2021-03-02,2011-12-09,In Betrieb,Aktiviert,59.86,59.86,260,Ost-West,5 - 20 Grad,null,null,Volleinspeisung,"Gewerbe, Handel und Dienstleistungen",null,null,9.682764,49.988473
SEE985410503962,SEL971228607237,Nordrhein-Westfalen,Euskirchen,05366032,53947,Nettersheim,2020-05-03,2010-05-20,In Betrieb,Aktiviert,37.95,37.6,165,Süd-Ost,21 - 40 Grad,null,null,Volleinspeisung,"Gewerbe, Handel und Dienstleistungen",null,null,6.654081,50.502311
SEE954960644371,SEL987965019165,Nordrhein-Westfalen,Steinfurt,05566048,49504,Lotte,2020-12-04,2011-12-20,In Betrieb,Aktiviert,68.63,52,292,Süd,5 - 20 Grad,null,null,Volleinspeisung,"Gewerbe, Handel und Dienstleistungen",null,null,7.919946,52.282403
SEE936736165914,SEL987696656967,Berlin,Berlin,11000000,12277,Berlin,2024-06-25,2024-06-25,In Betrieb,Aktiviert,606.05,540,1426,Ost-West,5 - 20 Grad,null,null,Teileinspeisung (einschließlich Eigenverbrauch),"Gewerbe, Handel und Dienstleistungen",null,null,13.378980,52.400526
SEE985597628144,SEL911883963040,Nordrhein-Westfalen,Oberbergischer Kreis,05374004,51702,Bergneustadt,2024-03-11,2024-02-29,In Betrieb,Aktiviert,404.21,380,974,Ost-West,5 - 20 Grad,null,null,Teileinspeisung (einschließlich Eigenverbrauch),null,null,null,7.663000,51.030000
SEE927744624678,SEL982101116203,Niedersachsen,Cloppenburg,03453007,26169,Friesoythe,2022-11-18,2022-09-09,In Betrieb,Aktiviert,44.17,39,133,Süd,21 - 40 Grad,null,null,Teileinspeisung (einschließlich Eigenverbrauch),Haushalt,4.5,4.5,7.894954,53.043102
SEE918666670317,SEL935673084531,Nordrhein-Westfalen,Borken,05554056,48703,Stadtlohn,2021-01-29,2018-07-13,In Betrieb,Aktiviert,328.04,310,1112,Süd-Ost,5 - 20 Grad,Süd,5 - 20 Grad,Volleinspeisung,Landwirtschaft,null,null,7.000511,51.994654
SEE936939081264,SEL937073769827,Sachsen,Zwickau,14524280,09356,St. Egidien,2020-02-05,2010-11-19,In Betrieb,Aktiviert,839.99,795.5,4421,Süd,5 - 20 Grad,null,null,Volleinspeisung,"Gewerbe, Handel und Dienstleistungen",null,null,12.619071,50.792284
SEE992073427504,SEL969949009683,Brandenburg,Oder-Spree,12067481,15859,Storkow,2021-03-09,2011-12-31,In Betrieb,Aktiviert,95.76,90,504,Süd,5 - 20 Grad,null,null,Volleinspeisung,Landwirtschaft,null,null,13.904236,52.226450
SEE934717469785,SEL922775613721,Niedersachsen,Cloppenburg,03453007,26683,Saterland,2021-01-15,2012-02-29,In Betrieb,Aktiviert,53.625,50,272,Süd-West,21 - 40 Grad,null,null,Volleinspeisung,Landwirtschaft,null,null,7.690250,53.128270
SEE972102199176,SEL988313262479,Bayern,Ebersberg,09175122,85567,Grafing,2023-01-10,2022-11-21,In Betrieb,Aktiviert,99.9,99.9,270,Süd,5 - 20 Grad,null,null,Teileinspeisung (einschließlich Eigenverbrauch),"Gewerbe, Handel und Dienstleistungen",null,null,11.936320,48.033580
SEE925897478551,SEL937906098964,Bayern,Donau-Ries,09779231,86709,Wolferstadt,2021-05-17,2021-04-29,In Betrieb,Aktiviert,52.78,50,153,Nord,5 - 20 Grad,Süd,5 - 20 Grad,Volleinspeisung,Landwirtschaft,null,null,10.805873,48.918835
SEE997509070194,SEL914218994412,Schleswig-Holstein,Stormarn,01062009,22885,Barsbüttel,2019-06-29,2011-06-14,In Betrieb,Aktiviert,71.53,71.53,311,Süd-West,21 - 40 Grad,null,null,Teileinspeisung (einschließlich Eigenverbrauch),"Gewerbe, Handel und Dienstleistungen",null,null,10.187134,53.576124
SEE922188349019,SEL914672505476,Bayern,Schweinfurt,09662000,97421,Schweinfurt,2020-11-10,2011-12-23,In Betrieb,Aktiviert,48.41,44,206,Süd-West,21 - 40 Grad,null,null,Volleinspeisung,Haushalt,null,null,10.220000,50.050000
SEE914874036952,SEL965208372789,Baden-Württemberg,Reutlingen,08415091,72820,Sonnenbühl,2021-01-28,2014-11-14,In Betrieb,Aktiviert,39.42,38.5,146,West,5 - 20 Grad,null,null,Teileinspeisung (einschließlich Eigenverbrauch),Sonstige,null,null,9.183157,48.393528
SEE938641593356,SEL961765289829,Niedersachsen,Emsland,03454005,26904,Börger,2025-01-20,2024-01-12,In Betrieb,Aktiviert,691.2,613,1728,Ost-West,5 - 20 Grad,null,null,Volleinspeisung,Landwirtschaft,null,null,7.578647,52.927911
SEE960827498117,SEL923224747165,Bayern,Kelheim,09273116,93077,Bad Abbach,2019-10-04,2012-06-22,In Betrieb,Aktiviert,76.59,76.59,289,West,5 - 20 Grad,Ost,5 - 20 Grad,Teileinspeisung (einschließlich Eigenverbrauch),"Gewerbe, Handel und Dienstleistungen",null,null,12.053506,48.936701
SEE961330093936,SEL931864234341,Bayern,Regen,09276138,94209,Regen,2021-01-29,2010-06-22,In Betrieb,Aktiviert,32.2,32.2,141,Süd,5 - 20 Grad,null,null,Volleinspeisung,Landwirtschaft,null,null,13.202707,48.993467
SEE967332395689,SEL919907716054,Bayern,Regensburg,09375180,93080,Pentling,2019-07-10,2018-06-26,In Betrieb,Aktiviert,749.835,749,2631,Süd,21 - 40 Grad,null,null,Volleinspeisung,null,null,null,12.086853,48.934399
SEE940850585435,SEL986254211914,Baden-Württemberg,Pforzheim,08231000,75179,Pforzheim,2023-07-18,2022-10-24,In Betrieb,Aktiviert,99.63,99.63,246,Süd,5 - 20 Grad,Ost,5 - 20 Grad,Teileinspeisung (einschließlich Eigenverbrauch),"Gewerbe, Handel und Dienstleistungen",null,null,8.654468,48.901920
SEE986588905091,SEL985543813150,Nordrhein-Westfalen,Borken,05554012,46325,Borken,2019-10-22,2011-08-25,In Betrieb,Aktiviert,53.2,48,332,Süd,21 - 40 Grad,null,null,Teileinspeisung (einschließlich Eigenverbrauch),"Gewerbe, Handel und Dienstleistungen",null,null,6.874945,51.860202
SEE948292670320,SEL900584984836,Niedersachsen,Emsland,03454018,49733,Haren,2020-12-29,2012-03-28,In Betrieb,Aktiviert,260.615,260.615,1109,Ost-West,5 - 20 Grad,Ost-West,5 - 20 Grad,Volleinspeisung,Industrie,null,null,7.296308,52.779665
SEE900626727230,SEL958612594878,Baden-Württemberg,Ostalbkreis,08136019,73479,Ellwangen,2019-07-22,2013-12-11,In Betrieb,Aktiviert,99.84,90,416,Ost-West,5 - 20 Grad,null,null,Teileinspeisung (einschließlich Eigenverbrauch),null,null,null,10.118046,48.990267
SEE981227008713,SEL935752545137,Niedersachsen,Nienburg (Weser),03256021,31608,Marklohe,2020-07-14,2005-04-19,In Betrieb,Aktiviert,39.69,31.1,189,Süd-West,5 - 20 Grad,null,null,Volleinspeisung,Landwirtschaft,null,null,9.149332,52.642703
SEE958119605954,SEL971197795591,Baden-Württemberg,Waldshut,08337127,79879,Wutach,2023-06-29,2023-06-26,In Betrieb,Aktiviert,397.29,397.29,969,Süd-West,5 - 20 Grad,Nord-Ost,5 - 20 Grad,Teileinspeisung (einschließlich Eigenverbrauch),Landwirtschaft,null,null,8.398752,47.818919
SEE953893156203,SEL966363160648,Niedersachsen,Leer,03457016,26845,Nortmoor,2021-01-29,2010-03-04,In Betrieb,Aktiviert,226.8,226.8,3024,Ost-West,5 - 20 Grad,Ost-West,5 - 20 Grad,Volleinspeisung,Industrie,null,null,7.545218,53.260744
SEE976146452501,SEL944932707340,Bayern,Bamberg,09471185,96110,Scheßlitz,2025-02-28,2025-01-30,In Betrieb,Aktiviert,98.58,90,186,Süd-Ost,21 - 40 Grad,null,null,Volleinspeisung,Landwirtschaft,null,null,11.031774,49.978708
SEE989503947138,SEL988879635199,Thüringen,Suhl,16054000,98529,Albrechts,2019-05-22,2011-11-24,In Betrieb,Aktiviert,49.92,49.92,208,Süd,21 - 40 Grad,null,null,Teileinspeisung (einschließlich Eigenverbrauch),"Gewerbe, Handel und Dienstleistungen",null,null,10.632792,50.604879
SEE907633681784,SEL965665421754,Niedersachsen,Uelzen,03360025,29525,Uelzen,2022-12-01,2022-12-01,In Betrieb,Aktiviert,6497.82,6000,12033,Süd,21 - 40 Grad,null,null,Volleinspeisung,null,null,null,10.542070,52.995615
SEE969598781695,SEL969896285932,Schleswig-Holstein,Rendsburg-Eckernförde,01058119,25557,Oldenbüttel,2019-09-03,2011-07-05,In Betrieb,Aktiviert,81.63,81.3,342,Süd,21 - 40 Grad,null,null,Volleinspeisung,Landwirtschaft,null,null,9.456547,54.163950
SEE931735601852,SEL971420346323,Thüringen,Sömmerda,16068049,99634,Schwerstedt,2020-11-23,2020-10-27,In Betrieb,Aktiviert,749.76,749.76,2272,null,null,null,null,null,null,null,null,10.923850,51.155550
SEE913944786452,SEL932868621267,Sachsen-Anhalt,Altmarkkreis Salzwedel,15081135,39638,Gardelegen,2019-02-18,2017-07-11,In Betrieb,Aktiviert,749.52,614.3,2776,Süd,21 - 40 Grad,null,null,Volleinspeisung,null,null,null,11.476264,52.453806
SEE997572796755,SEL943192199285,Bayern,Regensburg,09375213,93197,Zeitlarn,2021-01-10,2010-05-19,In Betrieb,Aktiviert,47.52,47.52,216,Ost-West,21 - 40 Grad,null,null,Volleinspeisung,Landwirtschaft,null,null,12.123018,49.097268
SEE902394176128,SEL966441482075,Mecklenburg-Vorpommern,Ludwigslust-Parchim,13076154,19073,Wittenförden,2021-01-26,2011-11-01,In Betrieb,Aktiviert,33.82,33,178,Süd,41 - 60 Grad,null,null,Volleinspeisung,"Gewerbe, Handel und Dienstleistungen",null,null,11.328680,53.635448
SEE947708929908,SEL958588269497,Niedersachsen,Vechta,03460002,49401,Damme,2021-01-28,2014-07-30,In Betrieb,Aktiviert,40.05,40,158,Süd,5 - 20 Grad,null,null,Teileinspeisung (einschließlich Eigenverbrauch),Landwirtschaft,null,null,8.285633,52.548146
SEE967884181310,SEL989596192774,Bayern,Ansbach,09571174,91578,Leutershausen,2020-11-19,2009-08-10,In Betrieb,Aktiviert,42.12,39,234,Süd,21 - 40 Grad,null,null,Volleinspeisung,Landwirtschaft,null,null,10.340888,49.268416
SEE977619286210,SEL952879864972,Thüringen,Unstrut-Hainich-Kreis,16064038,99955,Kutzleben,2020-08-06,2009-12-17,In Betrieb,Aktiviert,67.95,64,906,Süd-West,5 - 20 Grad,null,null,Volleinspeisung,"Gewerbe, Handel und Dienstleistungen",null,null,10.895268,51.187716
SEE955369737381,SEL929019798961,Niedersachsen,Hildesheim,03254005,31162,Bad Salzdetfurth,2019-04-27,2010-04-14,In Betrieb,Aktiviert,53.75,50,250,Süd,21 - 40 Grad,null,null,Volleinspeisung,Öffentliches Gebäude,null,null,10.014837,52.097671
SEE961015094807,SEL955931169053,Bayern,Passau,09275126,94051,Hauzenberg,2020-02-11,2010-04-21,In Betrieb,Aktiviert,36.75,33,210,Süd-West,21 - 40 Grad,null,null,Volleinspeisung,Landwirtschaft,null,null,13.609179,48.651786
SEE926678181295,SEL981282238773,Hessen,Main-Taunus-Kreis,06436007,65719,Hofheim,2023-08-03,2023-08-03,In Betrieb,Aktiviert,101.68,75,248,Nord-Ost,5 - 20 Grad,Süd-West,5 - 20 Grad,Teileinspeisung (einschließlich Eigenverbrauch),"Gewerbe, Handel und Dienstleistungen",null,null,8.459203,50.091850
SEE952302663066,SEL969680794251,Bayern,Schwandorf,09376164,92447,Schwarzhofen,2019-12-27,2011-12-09,In Betrieb,Aktiviert,73.2,73.2,366,Süd-Ost,41 - 60 Grad,null,null,Volleinspeisung,Sonstige,null,null,12.347206,49.375210
SEE932013343860,SEL953012682989,Brandenburg,Cottbus,12052000,03044,Cottbus,2020-04-01,2010-03-31,In Betrieb,Aktiviert,41.04,31,428,Süd,21 - 40 Grad,Ost-West,5 - 20 Grad,Volleinspeisung,"Gewerbe, Handel und Dienstleistungen",null,null,14.350255,51.786770
SEE951295606531,SEL942436151201,Rheinland-Pfalz,Rhein-Pfalz-Kreis,07338021,67166,Otterstadt,2019-07-01,2011-06-27,In Betrieb,Aktiviert,69.72,67,664,Ost-West,5 - 20 Grad,null,null,Volleinspeisung,null,null,null,8.444180,49.367429
SEE934841770344,SEL916624354408,Bayern,Kitzingen,09675149,97342,Marktsteft,2021-11-08,2012-06-21,In Betrieb,Aktiviert,148.54,135,1055,Süd,5 - 20 Grad,Nord,5 - 20 Grad,Volleinspeisung,Industrie,null,null,10.145906,49.687105
SEE944241674876,SEL908590912638,Bayern,Mühldorf a. Inn,09183135,84419,Obertaufkirchen,2021-01-07,2011-06-24,In Betrieb,Aktiviert,54.02,43.5,277,Ost,21 - 40 Grad,West,21 - 40 Grad,Volleinspeisung,"Gewerbe, Handel und Dienstleistungen",null,null,12.283317,48.243232
SEE911479541430,SEL933168037772,Baden-Württemberg,Ortenaukreis,08317039,77793,Gutach,2024-03-28,2024-03-27,In Betrieb,Aktiviert,99.76,99.76,232,Süd-West,5 - 20 Grad,null,null,Teileinspeisung (einschließlich Eigenverbrauch),null,null,null,8.211063,48.249958
SEE931279062867,SEL935480134757,Baden-Württemberg,Konstanz,08335057,78357,Mühlingen,2020-02-09,2009-10-12,In Betrieb,Aktiviert,76.44,76,300,Süd-West,5 - 20 Grad,Süd,5 - 20 Grad,Volleinspeisung,Landwirtschaft,null,null,8.997351,47.923095
SEE961404947059,SEL921125442189,Rheinland-Pfalz,Eifelkreis Bitburg-Prüm,07232101,54655,Orsfeld,2023-02-01,2022-12-19,In Betrieb,Aktiviert,5366.88,4730,9864,Süd-Ost,5 - 20 Grad,null,null,Volleinspeisung,null,null,null,6.615489,50.018937
SEE946377873598,SEL952601668816,Baden-Württemberg,Reutlingen,08415090,72531,Hohenstein,2025-07-07,2025-07-04,In Betrieb,Aktiviert,69.42,60,156,Süd,5 - 20 Grad,Nord,5 - 20 Grad,Volleinspeisung,Industrie,null,null,9.340803,48.325843
SEE985226776550,SEL997005405957,Bayern,Kaufbeuren,09762000,87600,Kaufbeuren,2024-05-16,2024-04-18,In Betrieb,Aktiviert,336.26,300,782,Ost-West,5 - 20 Grad,null,null,Teileinspeisung (einschließlich Eigenverbrauch),"Gewerbe, Handel und Dienstleistungen",null,null,10.635078,47.884041
SEE940838929718,SEL912226136794,Niedersachsen,Osterholz,03356008,27721,Ritterhude,2021-05-18,2011-11-21,In Betrieb,Aktiviert,51.92,48,468,null,null,null,null,Teileinspeisung (einschließlich Eigenverbrauch),Öffentliches Gebäude,null,null,8.735900,53.186486
SEE991189588062,SEL939133599344,Bayern,Dillingen a.d. Donau,09773122,86647,Buttenwiesen,2024-10-24,2024-09-12,In Betrieb,Aktiviert,236.98,220,578,Süd,5 - 20 Grad,West,5 - 20 Grad,Teileinspeisung (einschließlich Eigenverbrauch),"Gewerbe, Handel und Dienstleistungen",null,null,10.712832,48.609404
SEE931016187297,SEL946723287307,Baden-Württemberg,Göppingen,08117024,73312,Geislingen,2020-08-12,2011-08-05,In Betrieb,Aktiviert,66.985,63,268,Ost-West,21 - 40 Grad,Süd,41 - 60 Grad,Teileinspeisung (einschließlich Eigenverbrauch),Industrie,null,null,9.844561,48.629082
SEE921367539180,SEL943196358466,Niedersachsen,Oldenburg,03458007,26197,Großenkneten,2020-12-15,2010-06-30,In Betrieb,Aktiviert,284.9,280,1540,Süd,5 - 20 Grad,null,null,Volleinspeisung,Landwirtschaft,null,null,8.309129,52.989629
SEE940791300036,SEL968791470245,Sachsen-Anhalt,Salzlandkreis,15089305,39218,Schönebeck,2019-04-29,2017-02-24,In Betrieb,Aktiviert,419.77,396,1586,Süd,5 - 20 Grad,null,null,Volleinspeisung,Industrie,null,null,11.699048,52.026564
SEE964341149531,SEL916061990139,Nordrhein-Westfalen,Unna,05978024,44532,Lünen,2020-01-15,2010-12-30,In Betrieb,Aktiviert,101.1,78.2,836,Süd-West,5 - 20 Grad,null,null,Teileinspeisung (einschließlich Eigenverbrauch),null,null,null,7.561321,51.612892
SEE999883090539,SEL948405445005,Schleswig-Holstein,Ostholstein,01055035,23689,Luschendorf,2019-04-23,2011-11-25,In Betrieb,Aktiviert,56.4,53,240,Süd,5 - 20 Grad,null,null,Volleinspeisung,Landwirtschaft,null,null,10.720649,54.000668
SEE992808110381,SEL943728119701,Brandenburg,Uckermark,12073603,16306,Passow,2019-02-24,2012-06-29,In Betrieb,Aktiviert,448.27,407.7,1920,Süd-Ost,21 - 40 Grad,Süd-West,21 - 40 Grad,Volleinspeisung,null,null,null,14.058242,53.151247
SEE995962267830,SEL911042076987,Sachsen,Erzgebirgskreis,14521320,08349,Johanngeorgenstadt,2025-07-08,2025-05-15,In Betrieb,Aktiviert,88.58,88,220,Ost-West,5 - 20 Grad,null,null,Volleinspeisung,"Gewerbe, Handel und Dienstleistungen",null,null,12.722578,50.426851
SEE939879313846,null,Bayern,Passau,09275141,94060,Pocking,2025-04-24,null,In Planung,Aktiviert,2440.935,2400,3969,Süd,5 - 20 Grad,null,null,Volleinspeisung,null,null,null,13.350470,48.401860
SEE933766674416,SEL919526097657,Nordrhein-Westfalen,Mönchengladbach,05116000,41366,Schwalmtal,2021-03-22,2021-03-24,In Betrieb,Aktiviert,99.9,99.9,256,Ost,5 - 20 Grad,West,5 - 20 Grad,Teileinspeisung (einschließlich Eigenverbrauch),"Gewerbe, Handel und Dienstleistungen",null,null,6.267436,51.211289
SEE918771401592,SEL967608859754,Nordrhein-Westfalen,Dortmund,05913000,44339,Dortmund,2020-11-11,2008-12-29,In Betrieb,Aktiviert,50.68,50.68,724,Süd-West,41 - 60 Grad,null,null,Volleinspeisung,Öffentliches Gebäude,null,null,7.494298,51.552922
SEE997350195015,SEL936752834917,Rheinland-Pfalz,Südwestpfalz,07340017,66919,Herschberg,2021-01-17,2010-05-28,In Betrieb,Aktiviert,41.4,36.6,180,Süd,5 - 20 Grad,null,null,Volleinspeisung,null,null,null,7.560193,49.290459
SEE984762887058,SEL940269953023,Mecklenburg-Vorpommern,Mecklenburgische Seenplatte,13071132,17337,Schönhausen,2021-01-27,2021-01-27,In Betrieb,Aktiviert,82.41,60,246,Ost-West,5 - 20 Grad,null,null,Teileinspeisung (einschließlich Eigenverbrauch),Landwirtschaft,null,null,13.680557,53.558361
SEE991130672956,SEL956761055530,Mecklenburg-Vorpommern,Vorpommern-Rügen,13073050,18334,Lindholz,2023-08-08,2023-08-04,In Betrieb,Aktiviert,125.46,100,306,Ost-West,5 - 20 Grad,null,null,Volleinspeisung,Sonstige,null,null,12.717633,54.045748
SEE949548009420,SEL942096432115,Schleswig-Holstein,Plön,01057016,24232,Dobersdorf,2019-06-03,2008-06-26,In Betrieb,Aktiviert,61.2,54,360,Süd,5 - 20 Grad,null,null,Volleinspeisung,null,null,null,10.310202,54.310223
SEE919346359065,SEL970594982962,Nordrhein-Westfalen,Duisburg,05112000,47057,Duisburg,2020-04-20,2020-05-05,In Betrieb,Aktiviert,99.18,99,348,nachgeführt,5 - 20 Grad,nachgeführt,5 - 20 Grad,Teileinspeisung (einschließlich Eigenverbrauch),"Gewerbe, Handel und Dienstleistungen",null,null,6.780491,51.422467
SEE933606527872,SEL939977677345,Thüringen,Saalfeld-Rudolstadt,16073112,07426,Königsee-Rottenbach,2019-11-29,2013-01-31,In Betrieb,Aktiviert,166.6,156.6,680,Süd,5 - 20 Grad,null,null,Volleinspeisung,Industrie,null,null,11.158416,50.682205
SEE965649785353,SEL960534170153,Nordrhein-Westfalen,Hochsauerlandkreis,05958040,57392,Schmallenberg,2020-12-08,2010-05-06,In Betrieb,Aktiviert,69.92,63.95,null,Süd,21 - 40 Grad,null,null,Volleinspeisung,null,null,null,8.285512,51.179108
SEE939172531404,SEL932825606672,Hamburg,Hamburg,02000000,21079,Hamburg,2023-10-20,2024-02-20,In Betrieb,Aktiviert,45.29,40,72,Süd-West,5 - 20 Grad,Nord-Ost,5 - 20 Grad,Teileinspeisung (einschließlich Eigenverbrauch),"Gewerbe, Handel und Dienstleistungen",null,null,10.007459,53.458980
SEE900307723490,SEL955456597584,Baden-Württemberg,Esslingen,08116048,73274,Notzingen,2020-04-14,2017-11-14,In Betrieb,Aktiviert,47.42,47.42,156,Ost-West,5 - 20 Grad,null,null,Teileinspeisung (einschließlich Eigenverbrauch),Industrie,null,null,9.450361,48.669113
SEE989861770102,SEL959826367678,Niedersachsen,Aurich,03452020,26548,Norderney,2025-10-09,2025-09-23,In Betrieb,Aktiviert,92.3,80,260,Ost,5 - 20 Grad,West,5 - 20 Grad,Teileinspeisung (einschließlich Eigenverbrauch),"Gewerbe, Handel und Dienstleistungen",null,null,7.163566,53.703174
SEE987197408218,SEL942582720733,Rheinland-Pfalz,Eifelkreis Bitburg-Prüm,07232086,54636,Nattenheim,2020-12-30,2011-12-21,In Betrieb,Aktiviert,200,180,800,Süd-West,21 - 40 Grad,null,null,Volleinspeisung,Landwirtschaft,null,null,6.505978,50.025022
SEE995065665915,SEL986875596803,Bayern,Rosenheim,09187132,83101,Rohrdorf,2020-05-25,2009-12-28,In Betrieb,Aktiviert,33.32,32.32,167,Ost-West,21 - 40 Grad,Ost-West,21 - 40 Grad,Volleinspeisung,Landwirtschaft,null,null,12.139109,47.813952
SEE902681273479,SEL966617049712,Nordrhein-Westfalen,Borken,05554056,48703,Stadtlohn,2024-01-23,2024-01-22,In Betrieb,Aktiviert,175.48,150,428,Süd-Ost,5 - 20 Grad,Süd-West,21 - 40 Grad,Volleinspeisung,Landwirtschaft,null,null,6.879907,51.973852
SEE919914872644,SEL996602023557,Rheinland-Pfalz,Trier-Saarburg,07235118,54439,Saarburg,2020-03-01,2012-03-06,In Betrieb,Aktiviert,44.85,40,195,Ost-West,5 - 20 Grad,null,null,Volleinspeisung,"Gewerbe, Handel und Dienstleistungen",null,null,6.557856,49.600464
SEE959053709258,SEL955743830820,Baden-Württemberg,Ravensburg,08436077,88379,Unterwaldhausen,2024-12-31,2024-12-30,In Betrieb,Aktiviert,999.68,999.68,1562,Süd,5 - 20 Grad,null,null,Volleinspeisung,null,null,null,9.470701,47.909712
SEE988651481556,SEL999521278398,Thüringen,Hildburghausen,16069049,98646,Straufhain,2019-09-24,2016-12-29,In Betrieb,Aktiviert,154.5,144,590,Süd-West,5 - 20 Grad,null,null,Volleinspeisung,Landwirtschaft,null,null,10.686462,50.357624
SEE930692594788,SEL989877368140,Nordrhein-Westfalen,Viersen,05166016,41334,Nettetal,2021-01-26,2009-06-05,In Betrieb,Aktiviert,47.8,47.8,264,Süd,21 - 40 Grad,null,null,Volleinspeisung,Landwirtschaft,null,null,6.272134,51.295592
SEE999078909301,SEL990667959370,Nordrhein-Westfalen,Warendorf,05570040,48324,Sendenhorst,2020-01-21,2010-09-30,In Betrieb,Aktiviert,99.8,89.82,1050,Ost-West,5 - 20 Grad,null,null,Volleinspeisung,Sonstige,null,null,7.874214,51.815146
SEE907081371114,SEL956987167826,Berlin,Berlin,11000000,12357,Berlin,2024-09-03,2023-07-19,In Betrieb,Aktiviert,45.36,40,108,Ost-West,5 - 20 Grad,null,null,Teileinspeisung (einschließlich Eigenverbrauch),Haushalt,null,null,13.497438,52.423730
SEE993705009082,SEL926679389478,Niedersachsen,Vechta,03460002,49401,Damme,2020-11-05,2011-12-02,In Betrieb,Aktiviert,56.25,54,257,Süd-West,21 - 40 Grad,null,null,Volleinspeisung,Landwirtschaft,null,null,8.282222,52.518047
SEE930634198753,SEL926818405878,Thüringen,Wartburgkreis,16063046,99819,Krauthausen,2019-02-27,2018-08-29,In Betrieb,Aktiviert,748.39,640,2534,Süd,21 - 40 Grad,Nord,21 - 40 Grad,Teileinspeisung (einschließlich Eigenverbrauch),Landwirtschaft,null,null,10.261520,51.011261
SEE941950102126,SEL972256309872,Baden-Württemberg,Esslingen,08116077,70794,Filderstadt,2024-09-17,2024-09-03,In Betrieb,Aktiviert,99.63,99.63,242,Süd-Ost,5 - 20 Grad,null,null,Teileinspeisung (einschließlich Eigenverbrauch),"Gewerbe, Handel und Dienstleistungen",null,null,9.195226,48.677412
SEE966922143044,SEL947357359002,Berlin,Berlin,11000000,12437,Berlin,2024-08-28,2023-11-01,In Betrieb,Aktiviert,88.8,80,222,Ost-West,5 - 20 Grad,null,null,Teileinspeisung (einschließlich Eigenverbrauch),Haushalt,null,null,13.484018,52.479019
SEE929306089314,SEL969696300538,Nordrhein-Westfalen,Borken,05554012,46325,Borken,2020-12-03,2012-11-30,In Betrieb,Aktiviert,175,156.96,654,Süd,21 - 40 Grad,null,null,Teileinspeisung (einschließlich Eigenverbrauch),"Gewerbe, Handel und Dienstleistungen",null,null,6.867262,51.855852
SEE969429206526,SEL952352063052,Hessen,Hersfeld-Rotenburg,06632003,36179,Bebra,2019-03-29,2010-12-17,In Betrieb,Aktiviert,63.085,57.6,341,Süd-Ost,21 - 40 Grad,null,null,Volleinspeisung,Industrie,null,null,9.780000,50.980000
SEE979507190630,SEL992173457319,Brandenburg,Uckermark,12073069,17268,Boitzenburger Land,2019-02-27,2019-01-30,In Betrieb,Aktiviert,61.61,60,202,Ost,5 - 20 Grad,West,5 - 20 Grad,Volleinspeisung,null,null,null,13.685601,53.218599
SEE968831088256,SEL919596661819,Nordrhein-Westfalen,Heinsberg,05370020,41836,Hückelhoven,2020-11-27,2010-05-12,In Betrieb,Aktiviert,324,324,1800,Süd,21 - 40 Grad,null,null,Volleinspeisung,"Gewerbe, Handel und Dienstleistungen",null,null,6.234448,51.012474
SEE957248393695,SEL968043602509,Bayern,Passau,09275126,94051,Hauzenberg,2021-01-20,2012-06-29,In Betrieb,Aktiviert,810,810,3966,Süd,5 - 20 Grad,null,null,Volleinspeisung,"Gewerbe, Handel und Dienstleistungen",null,null,13.633607,48.624715
SEE961057874009,SEL951239172146,Rheinland-Pfalz,Pirmasens,07317000,66955,Pirmasens,2024-01-31,2024-01-29,In Betrieb,Aktiviert,64.7,55,156,Süd,21 - 40 Grad,null,null,Volleinspeisung,Haushalt,null,null,7.600187,49.191880
SEE977981852877,SEL960965323081,Sachsen-Anhalt,Stendal,15090445,39524,Sandau,2019-07-16,2019-06-28,In Betrieb,Aktiviert,342.1,270,1244,Süd,5 - 20 Grad,Nord,5 - 20 Grad,Volleinspeisung,Sonstige,null,null,12.052598,52.790498
SEE936507560061,SEL996545110376,Baden-Württemberg,Karlsruhe,08212000,76229,Karlsruhe,2020-02-27,2007-12-28,In Betrieb,Aktiviert,43.86,40,258,Süd,21 - 40 Grad,null,null,Volleinspeisung,Öffentliches Gebäude,null,null,8.499277,49.003159
SEE924000506716,SEL963066635374,Niedersachsen,Osnabrück,03459010,49593,Bersenbrück,2020-01-15,2018-08-31,In Betrieb,Aktiviert,99.54,99.54,260,Süd,5 - 20 Grad,null,null,Teileinspeisung (einschließlich Eigenverbrauch),null,null,null,7.929779,52.554216
SEE924648765063,SEL957165803161,Nordrhein-Westfalen,Kleve,05154012,47608,Geldern,2020-12-03,2020-05-04,In Betrieb,Aktiviert,162.54,150,516,Ost-West,5 - 20 Grad,null,null,Teileinspeisung (einschließlich Eigenverbrauch),"Gewerbe, Handel und Dienstleistungen",null,null,6.299498,51.488266
SEE924392249659,SEL908855053502,Mecklenburg-Vorpommern,Mecklenburgische Seenplatte,13071122,17248,Rechlin,2024-09-11,2023-12-19,In Betrieb,Aktiviert,82,70,200,Ost-West,5 - 20 Grad,null,null,Volleinspeisung,Landwirtschaft,null,null,12.771611,53.354188
SEE910898432534,SEL942908569725,Baden-Württemberg,Mannheim,08222000,68219,Mannheim,2020-02-11,2011-12-31,In Betrieb,Aktiviert,262.615,246,2125,Ost,5 - 20 Grad,West,5 - 20 Grad,Volleinspeisung,Öffentliches Gebäude,null,null,8.534557,49.442945
SEE956710313247,SEL912999179417,Nordrhein-Westfalen,Viersen,05166036,47877,Willich,2020-07-07,2010-07-28,In Betrieb,Aktiviert,73.6,69.9,297,Süd,21 - 40 Grad,null,null,Volleinspeisung,"Gewerbe, Handel und Dienstleistungen",null,null,6.509229,51.266151
SEE927996074191,SEL981620494090,Sachsen,Meißen,14627070,01594,Hirschstein,2019-11-08,2019-10-29,In Betrieb,Aktiviert,39.04,32,122,Ost-West,21 - 40 Grad,Süd,21 - 40 Grad,Teileinspeisung (einschließlich Eigenverbrauch),Haushalt,null,null,13.313825,51.246440
SEE913296290720,SEL975621312033,Nordrhein-Westfalen,Olpe,05966012,57413,Finnentrop,2020-04-03,2019-11-15,In Betrieb,Aktiviert,99.18,99.18,348,nachgeführt,5 - 20 Grad,nachgeführt,5 - 20 Grad,Teileinspeisung (einschließlich Eigenverbrauch),"Gewerbe, Handel und Dienstleistungen",null,null,7.986539,51.162962
SEE934759543788,SEL986056181132,Nordrhein-Westfalen,Hamm,05915000,59510,Lippetal,2020-12-15,2012-06-30,In Betrieb,Aktiviert,157.5,157.5,1050,Süd-West,21 - 40 Grad,null,null,Teileinspeisung (einschließlich Eigenverbrauch),Industrie,null,null,8.149427,51.671448
SEE946555522126,SEL997170220836,Bayern,Bamberg,09471120,96138,Burgebrach,2020-06-29,2005-12-29,In Betrieb,Aktiviert,40.32,40.32,224,Süd,21 - 40 Grad,null,null,Volleinspeisung,null,null,null,10.802816,49.818464
SEE946710863392,SEL909604123255,Thüringen,Erfurt,16051000,99087,Erfurt,2025-10-08,2025-10-07,In Betrieb,Aktiviert,301.5,301.5,900,Ost-West,21 - 40 Grad,null,null,Teileinspeisung (einschließlich Eigenverbrauch),"Gewerbe, Handel und Dienstleistungen",null,null,11.040483,51.023988
SEE957109730713,SEL959709086320,Bayern,Augsburg,09761000,86316,Friedberg,2024-08-21,2024-06-20,In Betrieb,Aktiviert,50.74,50,118,Süd,5 - 20 Grad,null,null,Teileinspeisung (einschließlich Eigenverbrauch),"Gewerbe, Handel und Dienstleistungen",null,null,10.971871,48.339007
SEE930324455197,SEL971732772360,Baden-Württemberg,Pforzheim,08231000,75175,Pforzheim,2021-01-14,2015-03-23,In Betrieb,Aktiviert,72,72,288,Süd,5 - 20 Grad,null,null,Teileinspeisung (einschließlich Eigenverbrauch),"Gewerbe, Handel und Dienstleistungen",null,null,8.721831,48.895596
SEE967511070093,SEL980050604116,Nordrhein-Westfalen,Herford,05758032,32139,Spenge,2024-11-11,2024-11-06,In Betrieb,Aktiviert,269.67,250,606,Ost-West,5 - 20 Grad,null,null,Teileinspeisung (einschließlich Eigenverbrauch),Industrie,null,null,8.462297,52.147817
SEE969292079562,SEL959160397706,Thüringen,Unstrut-Hainich-Kreis,16064003,99947,Bad Langensalza,2020-01-27,2013-12-30,In Betrieb,Aktiviert,195,165,660,Süd,5 - 20 Grad,null,null,Teileinspeisung (einschließlich Eigenverbrauch),Landwirtschaft,null,null,10.579918,51.083466
SEE995204695889,SEL956427913105,Sachsen-Anhalt,Salzlandkreis,15089075,39435,Egeln,2024-07-16,2022-12-16,In Betrieb,Aktiviert,330.48,315,816,Süd,5 - 20 Grad,null,null,Volleinspeisung,null,null,null,11.404314,51.917258
SEE985801142572,SEL941653322289,Brandenburg,Märkisch-Oderland,12064266,15328,Küstriner Vorland,2020-07-15,2018-01-31,In Betrieb,Aktiviert,439.83,366.5,1629,Süd-West,5 - 20 Grad,Nord-Ost,5 - 20 Grad,Volleinspeisung,"Gewerbe, Handel und Dienstleistungen",null,null,14.542923,52.553166
SEE923581050366,SEL966866876657,Bayern,Kulmbach,09477156,95346,Stadtsteinach,2021-02-02,2009-09-25,In Betrieb,Aktiviert,69.3,66,315,Süd-West,21 - 40 Grad,null,null,Teileinspeisung (einschließlich Eigenverbrauch),"Gewerbe, Handel und Dienstleistungen",null,null,11.516923,50.164869
SEE980285017101,SEL966813387984,Hessen,Wetteraukreis,06440017,61206,Wöllstadt,2019-08-26,2009-10-20,In Betrieb,Aktiviert,41.2,37.7,206,Nord-West,21 - 40 Grad,null,null,Volleinspeisung,Landwirtschaft,null,null,8.745560,50.296670
SEE993373315058,SEL987388075380,Bayern,Günzburg,09774135,89312,Günzburg,2024-12-25,2024-10-08,In Betrieb,Aktiviert,98.4,98.4,240,Süd,5 - 20 Grad,null,null,Teileinspeisung (einschließlich Eigenverbrauch),null,null,null,10.295555,48.473130
SEE958905144766,SEL989456554438,Bayern,Ostallgäu,09777153,87484,Nesselwang,2019-06-17,2019-03-27,In Betrieb,Aktiviert,54.45,54.45,198,Süd,5 - 20 Grad,null,null,Teileinspeisung (einschließlich Eigenverbrauch),"Gewerbe, Handel und Dienstleistungen",null,null,10.512768,47.620787
SEE960302679062,SEL932697985394,Bayern,Günzburg,09774155,89340,Leipheim,2020-01-20,2010-06-30,In Betrieb,Aktiviert,159.36,144.2,1408,Süd-West,5 - 20 Grad,null,null,Volleinspeisung,null,null,null,10.197900,48.459200
SEE955263661966,SEL956833411400,Schleswig-Holstein,Nordfriesland,01054132,25813,Südermarsch,2025-09-02,2025-08-20,In Betrieb,Aktiviert,15136.55,9360,25740,Süd,5 - 20 Grad,null,null,Volleinspeisung,null,null,null,9.059959,54.429294
SEE901269376465,SEL989309364979,Schleswig-Holstein,Nordfriesland,01054165,25899,Galmsbüll,2019-02-06,2009-12-10,In Betrieb,Aktiviert,40.5,40.5,180,Süd,5 - 20 Grad,null,null,Volleinspeisung,Landwirtschaft,null,null,8.723000,54.794000
SEE962384905503,SEL959632458287,Sachsen,Vogtlandkreis,14523260,08491,Netzschkau,2024-08-16,2024-08-14,In Betrieb,Aktiviert,182.27,150,425,Süd,5 - 20 Grad,Süd-West,5 - 20 Grad,Teileinspeisung (einschließlich Eigenverbrauch),Industrie,null,null,12.229780,50.631601
SEE911590378014,SEL945163581389,Nordrhein-Westfalen,Borken,05554068,48691,Vreden,2021-01-19,2009-12-17,In Betrieb,Aktiviert,99.2,99.2,405,Süd,21 - 40 Grad,null,null,Volleinspeisung,Industrie,null,null,6.789835,52.018837
SEE964734901630,SEL928387378614,Niedersachsen,Cloppenburg,03453003,49692,Cappeln,2025-07-04,2025-07-03,In Betrieb,Aktiviert,356,330,800,West,5 - 20 Grad,Ost,5 - 20 Grad,Teileinspeisung (einschließlich Eigenverbrauch),"Gewerbe, Handel und Dienstleistungen",null,null,8.027899,52.812807
SEE925318954749,SEL970348750441,Baden-Württemberg,Bodenseekreis,08435059,88662,Überlingen,2025-03-18,2025-03-12,In Betrieb,Aktiviert,41.76,34,96,Süd-West,5 - 20 Grad,null,null,Teileinspeisung (einschließlich Eigenverbrauch),"Gewerbe, Handel und Dienstleistungen",17,17,9.207570,47.776553
SEE986340498281,SEL900238214272,Thüringen,Greiz,16076022,07973,Greiz,2023-01-03,2022-11-08,In Betrieb,Aktiviert,48.84,48.84,133,Süd-West,5 - 20 Grad,null,null,Teileinspeisung (einschließlich Eigenverbrauch),"Gewerbe, Handel und Dienstleistungen",null,null,12.235375,50.649924
SEE905005890208,SEL914446257846,Niedersachsen,Harburg,03353032,21435,Stelle,2019-07-03,2019-03-20,In Betrieb,Aktiviert,99.36,99.36,344,Ost,21 - 40 Grad,West,21 - 40 Grad,Teileinspeisung (einschließlich Eigenverbrauch),Landwirtschaft,null,null,10.095376,53.377995
SEE972205119521,SEL951910256615,Hessen,Fulda,06631015,36088,Hünfeld,2024-07-24,2024-06-17,In Betrieb,Aktiviert,69.87,50,157,Ost-West,5 - 20 Grad,Süd,5 - 20 Grad,Teileinspeisung (einschließlich Eigenverbrauch),"Gewerbe, Handel und Dienstleistungen",null,null,9.769663,50.672341
SEE958422331403,SEL991589667701,Bayern,Ansbach,09571199,91625,Schnelldorf,2025-01-30,2025-01-27,In Betrieb,Aktiviert,99.615,99.615,229,Süd,5 - 20 Grad,Süd,61 - 89 Grad,Volleinspeisung,Industrie,null,null,10.171292,49.208278
SEE914508577653,SEL994608143408,Niedersachsen,Grafschaft Bentheim,03456003,48465,Engden,2023-09-11,2023-01-02,In Betrieb,Aktiviert,99.72,99.72,285,Süd-West,21 - 40 Grad,null,null,Volleinspeisung,Landwirtschaft,null,null,7.231247,52.371670
SEE997445194039,SEL969775349854,Nordrhein-Westfalen,Mettmann,05158012,42579,Heiligenhaus,2020-10-05,2011-12-22,In Betrieb,Aktiviert,52.92,52.92,216,Süd-West,5 - 20 Grad,null,null,Teileinspeisung (einschließlich Eigenverbrauch),"Gewerbe, Handel und Dienstleistungen",null,null,6.999331,51.336405
SEE950205647602,SEL966688763401,Sachsen,Bautzen,14625640,02997,Wittichenau,2020-02-11,2009-06-29,In Betrieb,Aktiviert,98.55,90,1314,Süd-Ost,5 - 20 Grad,Süd-West,5 - 20 Grad,Teileinspeisung (einschließlich Eigenverbrauch),Landwirtschaft,null,null,14.272918,51.378490
SEE991154172821,SEL959788849335,Niedersachsen,Northeim,03155001,37581,Bad Gandersheim,2024-09-27,2021-10-14,In Betrieb,Aktiviert,99.9,99.9,270,Süd,5 - 20 Grad,null,null,Teileinspeisung (einschließlich Eigenverbrauch),"Gewerbe, Handel und Dienstleistungen",null,null,10.026187,51.862249
SEE950939871021,SEL962617846023,Sachsen,Leipzig,14729160,04668,Grimma,2020-12-07,2010-06-29,In Betrieb,Aktiviert,54,50,300,Süd,5 - 20 Grad,null,null,Teileinspeisung (einschließlich Eigenverbrauch),Landwirtschaft,null,null,12.820191,51.280879
SEE927765491556,SEL988407755993,Nordrhein-Westfalen,Kleve,05154012,47608,Geldern,2020-10-19,2011-05-12,In Betrieb,Aktiviert,42.55,38.6,230,Süd-West,21 - 40 Grad,null,null,Volleinspeisung,null,null,null,6.345918,51.488866
SEE956952714123,SEL905939187542,Schleswig-Holstein,Stormarn,01062081,22967,Tremsbüttel,2020-10-09,2010-09-30,In Betrieb,Aktiviert,42.12,40,216,Süd-West,5 - 20 Grad,null,null,Volleinspeisung,Landwirtschaft,2.5,2.5,10.327219,53.748070
SEE988677648179,SEL968736377493,Baden-Württemberg,Schwarzwald-Baar-Kreis,08326012,78166,Donaueschingen,2024-08-20,2024-07-11,In Betrieb,Aktiviert,132.09,132.09,357,Süd-Ost,5 - 20 Grad,null,null,Teileinspeisung (einschließlich Eigenverbrauch),Industrie,null,null,8.544153,47.934038
SEE940714684403,SEL915524778338,Mecklenburg-Vorpommern,Rostock,13072098,18198,Stäbelow,2019-12-11,2010-06-30,In Betrieb,Aktiviert,61.82,35,562,Süd,21 - 40 Grad,Süd-Ost,5 - 20 Grad,Volleinspeisung,Industrie,null,null,12.023441,54.041465
SEE958187709936,SEL928868246289,Hessen,Kassel,06611000,34123,Kassel,2020-04-19,2009-12-18,In Betrieb,Aktiviert,102.07,102.07,510,null,null,null,null,Volleinspeisung,Sonstige,null,null,9.491596,51.334392
SEE953491728055,SEL994870387517,Bayern,Unterallgäu,09778144,87730,Bad Grönenbach,2019-12-06,2008-11-26,In Betrieb,Aktiviert,46.2,39.9,264,Süd,21 - 40 Grad,null,null,Volleinspeisung,Landwirtschaft,null,null,10.222141,47.894603
SEE910437745231,SEL936360410961,Nordrhein-Westfalen,Rhein-Sieg-Kreis,05382048,53359,Rheinbach,2021-10-05,2021-07-20,In Betrieb,Aktiviert,67.4,60,121,West,5 - 20 Grad,Ost,5 - 20 Grad,Teileinspeisung (einschließlich Eigenverbrauch),"Gewerbe, Handel und Dienstleistungen",null,null,6.950775,50.632659
SEE943454352359,SEL988238603746,Baden-Württemberg,Heidelberg,08221000,69123,Heidelberg,2021-02-03,2012-10-31,In Betrieb,Aktiviert,69.12,69.12,288,Süd-Ost,5 - 20 Grad,Nord-West,5 - 20 Grad,Teileinspeisung (einschließlich Eigenverbrauch),"Gewerbe, Handel und Dienstleistungen",null,null,8.640820,49.421455
SEE957656818131,SEL940686909160,Sachsen-Anhalt,Harz,15085110,06463,Reinstedt,2021-03-01,2021-02-25,In Betrieb,Aktiviert,2478.45,2200,7626,Süd,21 - 40 Grad,null,null,Volleinspeisung,null,null,null,11.359665,51.756981
SEE957261761167,SEL924483750156,Bayern,Miesbach,09182136,83627,Warngau,2020-11-24,2009-12-18,In Betrieb,Aktiviert,35,35,null,Süd,21 - 40 Grad,null,null,Volleinspeisung,Landwirtschaft,null,null,11.784073,47.799855
SEE953777863029,SEL939082719725,Nordrhein-Westfalen,Hochsauerlandkreis,05958012,59929,Brilon,2023-10-31,2023-10-04,In Betrieb,Aktiviert,49.77,49.77,126,Ost-West,5 - 20 Grad,null,null,Teileinspeisung (einschließlich Eigenverbrauch),"Gewerbe, Handel und Dienstleistungen",null,null,8.586147,51.404131
SEE957734312698,SEL946854465872,Baden-Württemberg,Stuttgart,08111000,70499,Stuttgart,2022-11-17,2022-10-21,In Betrieb,Aktiviert,1090,950,3374,Ost-West,5 - 20 Grad,null,null,Teileinspeisung (einschließlich Eigenverbrauch),"Gewerbe, Handel und Dienstleistungen",null,null,9.105001,48.825238
SEE983131803590,SEL996524695207,Brandenburg,Prignitz,12070316,16928,Pritzwalk,2019-04-11,2018-12-28,In Betrieb,Aktiviert,334.59,330,1174,Süd-Ost,5 - 20 Grad,Nord-West,5 - 20 Grad,Volleinspeisung,Landwirtschaft,null,null,12.304000,53.184000
SEE975726064158,SEL936255522670,Rheinland-Pfalz,Alzey-Worms,07331012,55237,Bornheim,2019-05-28,2009-11-09,In Betrieb,Aktiviert,46.6,39,228,Süd,5 - 20 Grad,null,null,Volleinspeisung,Sonstige,null,null,8.060915,49.784157
SEE915812527204,null,Bayern,Ansbach,09561000,91522,Ansbach,2025-04-24,null,In Planung,Aktiviert,9199.815,7955,21149,Süd,5 - 20 Grad,null,null,Volleinspeisung,null,null,null,10.614986,49.288731
SEE975503987526,SEL951031188024,Schleswig-Holstein,Segeberg,01060063,22846,Norderstedt,2019-03-01,2019-01-31,In Betrieb,Aktiviert,52.8,41.2,176,Süd,5 - 20 Grad,null,null,Volleinspeisung,Landwirtschaft,null,null,9.957000,53.698000
SEE967384019830,SEL957292551577,Rheinland-Pfalz,Bad Kreuznach,07133078,55546,Pfaffen-Schwabenheim,2025-03-17,2022-11-07,In Betrieb,Aktiviert,54.72,36.5,144,Ost-West,5 - 20 Grad,null,null,Volleinspeisung,"Gewerbe, Handel und Dienstleistungen",null,null,7.943733,49.849031
SEE900818933470,SEL958958124340,Hessen,Odenwaldkreis,06437011,64720,Michelstadt,2020-06-07,2011-12-07,In Betrieb,Aktiviert,52.8,52.8,null,Süd,21 - 40 Grad,null,null,Volleinspeisung,"Gewerbe, Handel und Dienstleistungen",null,null,9.004315,49.690646
SEE963198503534,SEL955221355821,Nordrhein-Westfalen,Soest,05974020,59590,Geseke,2020-04-26,2011-11-11,In Betrieb,Aktiviert,132.5,132,500,West,5 - 20 Grad,Ost,5 - 20 Grad,Volleinspeisung,Sonstige,null,null,8.507058,51.646952
SEE993924554608,SEL954935082764,Baden-Württemberg,Schwäbisch Hall,08127047,74595,Langenburg,2019-08-19,2019-01-26,In Betrieb,Aktiviert,50.6,50,184,Nord-Ost,5 - 20 Grad,null,null,Teileinspeisung (einschließlich Eigenverbrauch),Landwirtschaft,null,null,9.869019,49.261613
SEE929777102826,SEL960162859741,Nordrhein-Westfalen,Kleve,05154056,47589,Uedem,2020-10-12,2004-11-15,In Betrieb,Aktiviert,35.2,31.68,320,Süd-Ost,21 - 40 Grad,null,null,Volleinspeisung,Landwirtschaft,null,null,6.235555,51.701228
SEE999621107512,SEL964740198338,Baden-Württemberg,Karlsruhe,08215102,76344,Eggenstein-Leopoldshafen,2020-04-06,2008-08-26,In Betrieb,Aktiviert,69.92,55,884,Süd-West,21 - 40 Grad,null,null,Volleinspeisung,"Gewerbe, Handel und Dienstleistungen",null,null,8.399190,49.067793
SEE900226318517,SEL976982769726,Niedersachsen,Ammerland,03451001,26689,Apen,2023-11-27,2023-11-14,In Betrieb,Aktiviert,749.76,660,1136,Süd,5 - 20 Grad,null,null,Volleinspeisung,null,null,null,7.762401,53.176711
SEE943426994693,SEL905233881238,Bayern,Bad Tölz-Wolfratshausen,09173123,82547,Eurasburg,2020-07-27,2012-10-31,In Betrieb,Aktiviert,201.16,201.16,856,Süd-West,21 - 40 Grad,Süd-Ost,21 - 40 Grad,Volleinspeisung,Landwirtschaft,null,null,11.412463,47.856950
SEE905762408722,SEL984827120106,Baden-Württemberg,Konstanz,08335079,78333,Stockach,2023-08-24,2024-04-24,In Betrieb,Aktiviert,850.5,836.3,2100,Ost-West,5 - 20 Grad,Süd,5 - 20 Grad,Teileinspeisung (einschließlich Eigenverbrauch),Landwirtschaft,null,null,8.996377,47.891565
SEE908646892198,SEL993088141935,Niedersachsen,Osnabrück,03459016,49577,Eggermühlen,2019-06-27,2011-12-15,In Betrieb,Aktiviert,139.4,130,640,Süd-Ost,21 - 40 Grad,Süd-West,21 - 40 Grad,Teileinspeisung (einschließlich Eigenverbrauch),"Gewerbe, Handel und Dienstleistungen",null,null,7.819483,52.567930
SEE954930941523,SEL926580975777,Schleswig-Holstein,Segeberg,01060024,23815,Westerrade,2020-12-10,2020-07-29,In Betrieb,Aktiviert,47.19,44,143,Süd-West,21 - 40 Grad,null,null,Teileinspeisung (einschließlich Eigenverbrauch),Landwirtschaft,null,null,10.457397,53.936435
SEE951165373679,SEL944559052472,Sachsen,Leipzig,14729150,04643,Geithain,2020-11-06,2012-03-26,In Betrieb,Aktiviert,65.78,65.78,286,Ost-West,21 - 40 Grad,null,null,Teileinspeisung (einschließlich Eigenverbrauch),Landwirtschaft,null,null,12.685472,51.026753
SEE966154751468,SEL951363581234,Baden-Württemberg,Esslingen,08116019,73730,Esslingen,2020-01-15,2010-02-22,In Betrieb,Aktiviert,51.714,48.4,234,Süd-West,21 - 40 Grad,null,null,Volleinspeisung,"Gewerbe, Handel und Dienstleistungen",null,null,9.347886,48.722573
SEE901665062450,SEL989823275188,Nordrhein-Westfalen,Paderborn,05774024,33161,Hövelhof,2020-05-27,2009-12-23,In Betrieb,Aktiviert,74.8,74.8,340,Süd,21 - 40 Grad,null,null,Volleinspeisung,Industrie,null,null,8.650390,51.834670
SEE922144595887,SEL904750815481,Baden-Württemberg,Tuttlingen,08327007,78585,Bubsheim,2020-12-21,2020-12-15,In Betrieb,Aktiviert,750,750,1807,Süd,21 - 40 Grad,null,null,Teileinspeisung (einschließlich Eigenverbrauch),"Gewerbe, Handel und Dienstleistungen",null,null,8.829761,48.115586
SEE936237086848,SEL927305543035,Rheinland-Pfalz,Germersheim,07334032,67366,Weingarten,2021-10-09,2008-03-19,In Betrieb,Aktiviert,52,52,260,Süd,21 - 40 Grad,null,null,Volleinspeisung,Landwirtschaft,null,null,8.275745,49.256195
SEE988489811907,SEL968163655218,Nordrhein-Westfalen,Leverkusen,05316000,51381,Leverkusen,2023-10-20,2023-09-01,In Betrieb,Aktiviert,52.44,52,138,Ost-West,5 - 20 Grad,null,null,Teileinspeisung (einschließlich Eigenverbrauch),"Gewerbe, Handel und Dienstleistungen",null,null,7.021117,51.058076
SEE959318438398,SEL960960772198,Hessen,Limburg-Weilburg,06533008,65597,Hünfelden,2020-01-26,2009-12-22,In Betrieb,Aktiviert,99.75,99.75,1115,Ost-West,5 - 20 Grad,Süd,5 - 20 Grad,Volleinspeisung,Landwirtschaft,null,null,8.172404,50.310361
SEE994942140385,SEL922004690127,Niedersachsen,Cuxhaven,03352056,21789,Wingst,2020-12-02,2010-06-25,In Betrieb,Aktiviert,40.32,40.32,218,West,21 - 40 Grad,null,null,Volleinspeisung,Landwirtschaft,null,null,9.098120,53.725035
SEE966387856107,SEL925986020470,Baden-Württemberg,Bodenseekreis,08435052,88682,Salem,2023-12-14,2023-12-14,In Betrieb,Aktiviert,134.725,125,317,West,21 - 40 Grad,Ost,21 - 40 Grad,Volleinspeisung,Haushalt,null,null,9.336007,47.752733
SEE936434678501,SEL929941540355,Bayern,Neustadt a.d. Aisch-Bad Windsheim,09575122,91465,Ergersheim,2020-04-30,2007-07-30,In Betrieb,Aktiviert,31.5,31.5,120,Süd,21 - 40 Grad,null,null,Volleinspeisung,Landwirtschaft,null,null,10.304434,49.526253
SEE914122349575,SEL915925182659,Schleswig-Holstein,Rendsburg-Eckernförde,01058097,24806,Lohe-Föhrden,2021-01-27,2010-06-30,In Betrieb,Aktiviert,83.025,76.6,null,Süd-West,21 - 40 Grad,Süd,21 - 40 Grad,Volleinspeisung,null,null,null,9.495766,54.335573
SEE903480717546,SEL998282484765,Niedersachsen,Hameln-Pyrmont,03252007,31840,Hessisch Oldendorf,2020-09-02,2011-11-02,In Betrieb,Aktiviert,48,40,192,Süd-Ost,41 - 60 Grad,Süd-Ost,21 - 40 Grad,Teileinspeisung (einschließlich Eigenverbrauch),Landwirtschaft,null,null,9.241848,52.151246
SEE994666352477,SEL992107314770,Niedersachsen,Emsland,03454055,49757,Vrees,2019-06-04,2019-05-31,In Betrieb,Aktiviert,69.3,62.4,252,Süd,21 - 40 Grad,null,null,Volleinspeisung,"Gewerbe, Handel und Dienstleistungen",null,null,7.784241,52.885417
SEE919407611583,SEL962426638918,Bayern,Landsberg am Lech,09181130,86899,Landsberg,2022-01-20,2021-11-15,In Betrieb,Aktiviert,54,50,144,Ost-West,5 - 20 Grad,null,null,Teileinspeisung (einschließlich Eigenverbrauch),"Gewerbe, Handel und Dienstleistungen",null,null,10.857348,48.068194
SEE962988063401,SEL914933300017,Bayern,Nürnberger Land,09574160,91235,Velden,2020-12-09,2007-12-24,In Betrieb,Aktiviert,48,42,240,Süd,21 - 40 Grad,null,null,Volleinspeisung,Industrie,null,null,11.499485,49.619811
SEE902739394156,SEL903988617768,Baden-Württemberg,Sigmaringen,08437047,72513,Hettingen,2020-09-30,2020-09-30,In Betrieb,Aktiviert,53.95,50,166,Süd,5 - 20 Grad,Nord,5 - 20 Grad,Teileinspeisung (einschließlich Eigenverbrauch),Industrie,null,null,9.232830,48.220111
SEE963910996897,SEL919043537070,Baden-Württemberg,Ostalbkreis,08136079,73550,Waldstetten,2019-07-26,2009-12-21,In Betrieb,Aktiviert,109.66,97.95,527,Süd-West,21 - 40 Grad,Süd-Ost,21 - 40 Grad,Volleinspeisung,Industrie,null,null,9.826682,48.769959
SEE916005906387,SEL991404992117,Sachsen-Anhalt,Altmarkkreis Salzwedel,15081455,29410,Salzwedel,2021-09-19,2011-12-27,In Betrieb,Aktiviert,123.6,123.6,1030,Süd-West,5 - 20 Grad,null,null,Volleinspeisung,"Gewerbe, Handel und Dienstleistungen",null,null,11.171564,52.839253
SEE947716107992,SEL948624827316,Brandenburg,Potsdam-Mittelmark,12069224,14828,Görzke,2025-08-28,2024-09-19,In Betrieb,Aktiviert,211.65,211.65,510,Ost-West,5 - 20 Grad,Süd-Ost,5 - 20 Grad,Volleinspeisung,"Gewerbe, Handel und Dienstleistungen",null,null,12.372018,52.176249
SEE936552264433,SEL937694640345,Niedersachsen,Ammerland,03451002,26160,Bad Zwischenahn,2020-01-23,2013-06-28,In Betrieb,Aktiviert,36.96,34,154,Süd,5 - 20 Grad,null,null,Teileinspeisung (einschließlich Eigenverbrauch),"Gewerbe, Handel und Dienstleistungen",null,null,8.000856,53.168941
SEE943465505980,SEL946798128949,Baden-Württemberg,Ludwigsburg,08118048,71636,Ludwigsburg,2019-02-18,2013-11-05,In Betrieb,Aktiviert,87.15,82,1245,Süd-Ost,41 - 60 Grad,null,null,Teileinspeisung (einschließlich Eigenverbrauch),Haushalt,null,null,9.163257,48.892674
SEE973292900993,SEL971488148020,Bayern,Landsberg am Lech,09181130,86899,Landsberg,2023-11-07,2023-08-09,In Betrieb,Aktiviert,44.8,44.8,112,Süd-West,5 - 20 Grad,Süd-Ost,5 - 20 Grad,Teileinspeisung (einschließlich Eigenverbrauch),"Gewerbe, Handel und Dienstleistungen",null,null,10.861261,48.067199
SEE951350582152,SEL976532612533,Nordrhein-Westfalen,Lippe,05766036,32689,Kalletal,2020-10-05,2014-07-30,In Betrieb,Aktiviert,135.975,130.9,555,Süd-Ost,21 - 40 Grad,Süd,21 - 40 Grad,Teileinspeisung (einschließlich Eigenverbrauch),Industrie,null,null,8.954463,52.103945
SEE931625856249,null,Bayern,Aschaffenburg,09671130,63768,Hösbach,2021-11-21,null,In Planung,Aktiviert,51.68,50,152,Süd,5 - 20 Grad,null,null,Teileinspeisung (einschließlich Eigenverbrauch),"Gewerbe, Handel und Dienstleistungen",null,null,9.239424,49.998372
SEE984262975200,SEL924025987354,Sachsen-Anhalt,Stendal,15090500,39524,Schönhausen,2019-02-04,2019-01-31,In Betrieb,Aktiviert,149.33,136.4,543,Süd-West,5 - 20 Grad,Nord-Ost,5 - 20 Grad,Volleinspeisung,Sonstige,null,null,12.038000,52.611000
SEE949619379711,SEL931823425629,Baden-Württemberg,Emmendingen,08316051,79369,Wyhl,2019-04-01,2011-12-23,In Betrieb,Aktiviert,292.27,282.5,1215,Süd-Ost,5 - 20 Grad,null,null,Volleinspeisung,Sonstige,null,null,7.634974,48.160921
SEE943199332050,SEL954888155003,Saarland,Saarpfalz-Kreis,10045114,66424,Homburg,2020-11-24,2010-06-30,In Betrieb,Aktiviert,46.8,43.3,187,Süd-West,5 - 20 Grad,null,null,Volleinspeisung,"Gewerbe, Handel und Dienstleistungen",null,null,7.345121,49.340416
SEE996085561300,SEL985355119044,Brandenburg,Uckermark,12073603,16306,Passow,2020-06-14,2012-03-30,In Betrieb,Aktiviert,461.38,399.2,1887,Süd-Ost,5 - 20 Grad,null,null,Volleinspeisung,Landwirtschaft,null,null,14.069922,53.152874
SEE906374447895,SEL923277159748,Bayern,Kitzingen,09675161,97348,Rödelsee,2020-12-11,2011-07-04,In Betrieb,Aktiviert,621.67,583,2487,Süd,21 - 40 Grad,null,null,Volleinspeisung,"Gewerbe, Handel und Dienstleistungen",null,null,10.212822,49.731590
SEE972221974487,SEL988630281900,Sachsen-Anhalt,Stendal,15090535,39576,Stendal,2019-06-27,2019-05-31,In Betrieb,Aktiviert,749.6,534,2541,Süd,5 - 20 Grad,Nord,5 - 20 Grad,Volleinspeisung,Landwirtschaft,null,null,11.738960,52.588894
SEE926010498333,SEL989637543176,Nordrhein-Westfalen,Köln,05315000,51063,Köln,2025-02-28,2025-01-29,In Betrieb,Aktiviert,96.12,96.12,216,Ost-West,5 - 20 Grad,null,null,Volleinspeisung,"Gewerbe, Handel und Dienstleistungen",null,null,7.022439,50.969539
SEE918358294159,SEL926737434027,Bayern,Kempten (Allgäu),09763000,87437,Kempten,2021-01-18,2011-09-30,In Betrieb,Aktiviert,83.66,80,356,Süd,5 - 20 Grad,null,null,Teileinspeisung (einschließlich Eigenverbrauch),Industrie,null,null,10.298900,47.717700
SEE928938668027,SEL938820320803,Brandenburg,Ostprignitz-Ruppin,12068181,16909,Heiligengrabe,2019-11-20,2019-11-14,In Betrieb,Aktiviert,1125.45,880,3963,Süd,21 - 40 Grad,null,null,Volleinspeisung,null,null,null,12.337972,53.055928
SEE989372946706,SEL903608194167,Baden-Württemberg,Ortenaukreis,08317114,77977,Rust,2023-06-05,2023-05-31,In Betrieb,Aktiviert,57.6,50,144,West,5 - 20 Grad,Ost,5 - 20 Grad,Teileinspeisung (einschließlich Eigenverbrauch),"Gewerbe, Handel und Dienstleistungen",null,null,7.725610,48.261300
SEE987458585238,SEL919990102017,Schleswig-Holstein,Kiel,01002000,24118,Kiel,2020-03-09,2010-11-13,In Betrieb,Aktiviert,44.16,44.16,205,Süd-West,21 - 40 Grad,null,null,Volleinspeisung,Sonstige,null,null,10.121484,54.341930
SEE909324869662,SEL907426217961,Hessen,Wetteraukreis,06440005,35510,Butzbach,2025-08-28,2025-07-30,In Betrieb,Aktiviert,40.875,35,109,Süd,21 - 40 Grad,Nord,21 - 40 Grad,Teileinspeisung (einschließlich Eigenverbrauch),"Gewerbe, Handel und Dienstleistungen",null,null,8.682928,50.434020
SEE987392656544,SEL926336004812,Bayern,Rosenheim,09187145,83129,Höslwang,2021-05-10,2011-07-04,In Betrieb,Aktiviert,42.75,38.1,225,Süd,21 - 40 Grad,null,null,Teileinspeisung (einschließlich Eigenverbrauch),Landwirtschaft,null,null,12.341319,47.944276
SEE935577986634,SEL997727161834,Bayern,Würzburg,09679131,97199,Ochsenfurt,2019-11-12,2012-06-30,In Betrieb,Aktiviert,124.41,124.41,638,Süd,5 - 20 Grad,null,null,Volleinspeisung,null,null,null,10.050107,49.650644
SEE986837208379,SEL998574432788,Bayern,Neu-Ulm,09775164,89264,Weißenhorn,2019-11-18,2011-12-30,In Betrieb,Aktiviert,109.28,98,465,Süd,21 - 40 Grad,null,null,Volleinspeisung,"Gewerbe, Handel und Dienstleistungen",null,null,10.086436,48.374520
